{
"type": "FeatureCollection",
"crs": { "type": "name", "properties": { "name": "urn:ogc:def:crs:OGC:1.3:CRS84" } },
"features": [
{ "type": "Feature", "properties": { "element_type": "node", "osmid": 1798496605, "amenity": "fuel", "name": "Posto Viola", "opening_hours": null }, "geometry": { "type": "Point", "coordinates": [ -37.2784725, -7.0238981 ] } },
{ "type": "Feature", "properties": { "element_type": "node", "osmid": 1798496642, "amenity": "taxi", "name": "Moto táxi Praça dos Pombos", "opening_hours": null }, "geometry": { "type": "Point", "coordinates": [ -37.2784295, -7.0236054 ] } },
{ "type": "Feature", "properties": { "element_type": "node", "osmid": 1798525769, "amenity": "taxi", "name": "Táxi Rodoviária Velha", "opening_hours": null }, "geometry": { "type": "Point", "coordinates": [ -37.2773487, -7.0226495 ] } },
{ "type": "Feature", "properties": { "element_type": "node", "osmid": 1798525772, "amenity": "taxi", "name": "Táxi Fórum Miguel Sátiro", "opening_hours": null }, "geometry": { "type": "Point", "coordinates": [ -37.2770215, -7.0260144 ] } },
{ "type": "Feature", "properties": { "element_type": "node", "osmid": 1798919196, "amenity": "bar", "name": "Bar do Rock", "opening_hours": "We-Su 19:00-02:00+; week 25-26 18:00-04:00" }, "geometry": { "type": "Point", "coordinates": [ -37.2770167, -7.0220427 ] } },
{ "type": "Feature", "properties": { "element_type": "node", "osmid": 1798919197, "amenity": "pub", "name": "Bodega", "opening_hours": "We-Su 19:00-02:00+; week 25-26 18:00-04:00" }, "geometry": { "type": "Point", "coordinates": [ -37.2768704, -7.0220024 ] } },
{ "type": "Feature", "properties": { "element_type": "node", "osmid": 1798922511, "amenity": "taxi", "name": "Taxi Banco do Brasil", "opening_hours": null }, "geometry": { "type": "Point", "coordinates": [ -37.2767775, -7.0271452 ] } },
{ "type": "Feature", "properties": { "element_type": "node", "osmid": 1798922512, "amenity": "taxi", "name": "Taxi Hospital Regional", "opening_hours": null }, "geometry": { "type": "Point", "coordinates": [ -37.2833222, -7.0177534 ] } },
{ "type": "Feature", "properties": { "element_type": "node", "osmid": 1798924496, "amenity": "restaurant", "name": "China K", "opening_hours": null }, "geometry": { "type": "Point", "coordinates": [ -37.2772093, -7.0247628 ] } },
{ "type": "Feature", "properties": { "element_type": "node", "osmid": 1798924526, "amenity": "bank", "name": "Banco do Brasil", "opening_hours": "Mo-Su 06:00-22:00" }, "geometry": { "type": "Point", "coordinates": [ -37.2770189, -7.0268843 ] } },
{ "type": "Feature", "properties": { "element_type": "node", "osmid": 1800088822, "amenity": "bar", "name": "Bar da Mangueira", "opening_hours": null }, "geometry": { "type": "Point", "coordinates": [ -37.2796199, -7.0721154 ] } },
{ "type": "Feature", "properties": { "element_type": "node", "osmid": 1801165162, "amenity": "marketplace", "name": "Feira da Troca", "opening_hours": null }, "geometry": { "type": "Point", "coordinates": [ -37.2830919, -7.0291429 ] } },
{ "type": "Feature", "properties": { "element_type": "node", "osmid": 1801165173, "amenity": "fuel", "name": "Posto Patos", "opening_hours": null }, "geometry": { "type": "Point", "coordinates": [ -37.3039327, -7.0342247 ] } },
{ "type": "Feature", "properties": { "element_type": "node", "osmid": 1801165183, "amenity": "fuel", "name": "Posto Liberdade", "opening_hours": null }, "geometry": { "type": "Point", "coordinates": [ -37.2899422, -7.0309451 ] } },
{ "type": "Feature", "properties": { "element_type": "node", "osmid": 1801176610, "amenity": "bank", "name": "Caixa Econômica Federal", "opening_hours": "Mo-Su 06:00-22:00" }, "geometry": { "type": "Point", "coordinates": [ -37.2773378, -7.0252917 ] } },
{ "type": "Feature", "properties": { "element_type": "node", "osmid": 1801176616, "amenity": "bank", "name": "Santander", "opening_hours": "Mo-Su 06:00-22:00" }, "geometry": { "type": "Point", "coordinates": [ -37.2758821, -7.0291535 ] } },
{ "type": "Feature", "properties": { "element_type": "node", "osmid": 1801176618, "amenity": "bank", "name": "Banco do Nordeste", "opening_hours": "Mo-Su 06:00-22:00" }, "geometry": { "type": "Point", "coordinates": [ -37.2762415, -7.0291855 ] } },
{ "type": "Feature", "properties": { "element_type": "node", "osmid": 1801176623, "amenity": "restaurant", "name": "Restaurante e Churrascaria Boi Forte", "opening_hours": null }, "geometry": { "type": "Point", "coordinates": [ -37.2782156, -7.0367935 ] } },
{ "type": "Feature", "properties": { "element_type": "node", "osmid": 1801176629, "amenity": "bank", "name": "Itaú", "opening_hours": "Mo-Su 06:00-22:00" }, "geometry": { "type": "Point", "coordinates": [ -37.2772804, -7.0254193 ] } },
{ "type": "Feature", "properties": { "element_type": "node", "osmid": 1801176633, "amenity": "fuel", "name": "Auto Posto Patoense", "opening_hours": "24/7" }, "geometry": { "type": "Point", "coordinates": [ -37.2786887, -7.0363279 ] } },
{ "type": "Feature", "properties": { "element_type": "node", "osmid": 1802271607, "amenity": "cafe", "name": "Centenário Café", "opening_hours": null }, "geometry": { "type": "Point", "coordinates": [ -37.2772044, -7.0255882 ] } },
{ "type": "Feature", "properties": { "element_type": "node", "osmid": 1802271608, "amenity": "fuel", "name": "Posto Paizão", "opening_hours": null }, "geometry": { "type": "Point", "coordinates": [ -37.2764857, -7.0270319 ] } },
{ "type": "Feature", "properties": { "element_type": "node", "osmid": 1802271609, "amenity": "police", "name": "Delegacia de Polícia Civil", "opening_hours": "24/7" }, "geometry": { "type": "Point", "coordinates": [ -37.2858773, -7.018699 ] } },
{ "type": "Feature", "properties": { "element_type": "node", "osmid": 1802288440, "amenity": "fuel", "name": "Posto Novo Horizonte", "opening_hours": null }, "geometry": { "type": "Point", "coordinates": [ -37.2903742, -7.0111764 ] } },
{ "type": "Feature", "properties": { "element_type": "node", "osmid": 1802288446, "amenity": "fuel", "name": "Posto Santa Francisca", "opening_hours": "24/7" }, "geometry": { "type": "Point", "coordinates": [ -37.2991021, -7.0055326 ] } },
{ "type": "Feature", "properties": { "element_type": "node", "osmid": 1802300463, "amenity": "taxi", "name": "Taxi Hospital Infantil", "opening_hours": null }, "geometry": { "type": "Point", "coordinates": [ -37.2813431, -7.0150627 ] } },
{ "type": "Feature", "properties": { "element_type": "node", "osmid": 1802302558, "amenity": "fuel", "name": "CID Posto", "opening_hours": "24/7" }, "geometry": { "type": "Point", "coordinates": [ -37.2794763, -7.0222691 ] } },
{ "type": "Feature", "properties": { "element_type": "node", "osmid": 1808977675, "amenity": "bank", "name": "Caixa Econômica Federal", "opening_hours": null }, "geometry": { "type": "Point", "coordinates": [ -37.281617, -7.0278546 ] } },
{ "type": "Feature", "properties": { "element_type": "node", "osmid": 1808977676, "amenity": "atm", "name": "Banco24Horas", "opening_hours": null }, "geometry": { "type": "Point", "coordinates": [ -37.2815542, -7.0279968 ] } },
{ "type": "Feature", "properties": { "element_type": "node", "osmid": 1808993347, "amenity": "bar", "name": "Bar do Império", "opening_hours": null }, "geometry": { "type": "Point", "coordinates": [ -37.280575, -7.0194172 ] } },
{ "type": "Feature", "properties": { "element_type": "node", "osmid": 1808993353, "amenity": "bar", "name": "Cabana Morada do Sol", "opening_hours": null }, "geometry": { "type": "Point", "coordinates": [ -37.2797087, -7.0201605 ] } },
{ "type": "Feature", "properties": { "element_type": "node", "osmid": 1812022717, "amenity": "fuel", "name": "Posto Beira Rio", "opening_hours": "24/7" }, "geometry": { "type": "Point", "coordinates": [ -37.2705489, -7.0234212 ] } },
{ "type": "Feature", "properties": { "element_type": "node", "osmid": 1812038385, "amenity": "fuel", "name": "Auto Posto Califórnia", "opening_hours": null }, "geometry": { "type": "Point", "coordinates": [ -37.276152, -7.0224389 ] } },
{ "type": "Feature", "properties": { "element_type": "node", "osmid": 1812038388, "amenity": "fuel", "name": "Posto Gipagel", "opening_hours": null }, "geometry": { "type": "Point", "coordinates": [ -37.2775656, -7.0239084 ] } },
{ "type": "Feature", "properties": { "element_type": "node", "osmid": 1812038470, "amenity": "restaurant", "name": "Restaurante e Churrascaria Boi Forte", "opening_hours": "Mo 10:00-22:00; Tu-Su 09:00-23:00; week 25-26 10:00-05:00" }, "geometry": { "type": "Point", "coordinates": [ -37.2766724, -7.0226892 ] } },
{ "type": "Feature", "properties": { "element_type": "node", "osmid": 1812044490, "amenity": "pub", "name": "Vila Sertão", "opening_hours": null }, "geometry": { "type": "Point", "coordinates": [ -37.2764739, -7.0237167 ] } },
{ "type": "Feature", "properties": { "element_type": "node", "osmid": 1812044502, "amenity": "pub", "name": "Barril 83", "opening_hours": null }, "geometry": { "type": "Point", "coordinates": [ -37.2733545, -7.0233307 ] } },
{ "type": "Feature", "properties": { "element_type": "node", "osmid": 1812079802, "amenity": "toilets", "name": null, "opening_hours": null }, "geometry": { "type": "Point", "coordinates": [ -37.2654741, -7.0212674 ] } },
{ "type": "Feature", "properties": { "element_type": "node", "osmid": 1812079812, "amenity": "toilets", "name": null, "opening_hours": null }, "geometry": { "type": "Point", "coordinates": [ -37.2653454, -7.021515 ] } },
{ "type": "Feature", "properties": { "element_type": "node", "osmid": 1812082417, "amenity": "library", "name": "Biblioteca Campus VII", "opening_hours": null }, "geometry": { "type": "Point", "coordinates": [ -37.2654151, -7.0211449 ] } },
{ "type": "Feature", "properties": { "element_type": "node", "osmid": 1812082418, "amenity": "fire_station", "name": "Corpo de Bombeiros", "opening_hours": null }, "geometry": { "type": "Point", "coordinates": [ -37.2895844, -7.0220348 ] } },
{ "type": "Feature", "properties": { "element_type": "node", "osmid": 1812082887, "amenity": "drinking_water", "name": null, "opening_hours": null }, "geometry": { "type": "Point", "coordinates": [ -37.265356, -7.0214592 ] } },
{ "type": "Feature", "properties": { "element_type": "node", "osmid": 1812082888, "amenity": "drinking_water", "name": null, "opening_hours": null }, "geometry": { "type": "Point", "coordinates": [ -37.2656511, -7.0214644 ] } },
{ "type": "Feature", "properties": { "element_type": "node", "osmid": 1812082889, "amenity": "fast_food", "name": "Cantina da UEPB", "opening_hours": null }, "geometry": { "type": "Point", "coordinates": [ -37.2656376, -7.0215602 ] } },
{ "type": "Feature", "properties": { "element_type": "node", "osmid": 1812082891, "amenity": "telephone", "name": null, "opening_hours": null }, "geometry": { "type": "Point", "coordinates": [ -37.2651521, -7.0212514 ] } },
{ "type": "Feature", "properties": { "element_type": "node", "osmid": 1812862202, "amenity": "post_office", "name": "Correios", "opening_hours": null }, "geometry": { "type": "Point", "coordinates": [ -37.2767055, -7.0266502 ] } },
{ "type": "Feature", "properties": { "element_type": "node", "osmid": 1812887993, "amenity": "restaurant", "name": "Restaurante Brasília", "opening_hours": null }, "geometry": { "type": "Point", "coordinates": [ -37.270665, -7.0236475 ] } },
{ "type": "Feature", "properties": { "element_type": "node", "osmid": 1812895711, "amenity": "taxi", "name": null, "opening_hours": null }, "geometry": { "type": "Point", "coordinates": [ -37.2784355, -7.0278082 ] } },
{ "type": "Feature", "properties": { "element_type": "node", "osmid": 1812941824, "amenity": "fast_food", "name": null, "opening_hours": null }, "geometry": { "type": "Point", "coordinates": [ -37.2795781, -7.020578 ] } },
{ "type": "Feature", "properties": { "element_type": "node", "osmid": 1812941830, "amenity": "atm", "name": "Santander", "opening_hours": null }, "geometry": { "type": "Point", "coordinates": [ -37.279589, -7.0207908 ] } },
{ "type": "Feature", "properties": { "element_type": "node", "osmid": 1812941835, "amenity": "atm", "name": "Bradesco", "opening_hours": null }, "geometry": { "type": "Point", "coordinates": [ -37.2794896, -7.020578 ] } },
{ "type": "Feature", "properties": { "element_type": "node", "osmid": 1812941856, "amenity": "fast_food", "name": null, "opening_hours": null }, "geometry": { "type": "Point", "coordinates": [ -37.2795298, -7.0206339 ] } },
{ "type": "Feature", "properties": { "element_type": "node", "osmid": 1818285625, "amenity": "fuel", "name": "Posto Tigrão", "opening_hours": "24/7" }, "geometry": { "type": "Point", "coordinates": [ -37.251367, -7.0195976 ] } },
{ "type": "Feature", "properties": { "element_type": "node", "osmid": 1823547259, "amenity": "bench", "name": null, "opening_hours": null }, "geometry": { "type": "Point", "coordinates": [ -37.275862, -7.0296041 ] } },
{ "type": "Feature", "properties": { "element_type": "node", "osmid": 1823548927, "amenity": "telephone", "name": null, "opening_hours": null }, "geometry": { "type": "Point", "coordinates": [ -37.2768302, -7.0271552 ] } },
{ "type": "Feature", "properties": { "element_type": "node", "osmid": 1823549348, "amenity": "toilets", "name": null, "opening_hours": null }, "geometry": { "type": "Point", "coordinates": [ -37.2749525, -7.0217936 ] } },
{ "type": "Feature", "properties": { "element_type": "node", "osmid": 1823549382, "amenity": "fast_food", "name": null, "opening_hours": null }, "geometry": { "type": "Point", "coordinates": [ -37.2762481, -7.0232364 ] } },
{ "type": "Feature", "properties": { "element_type": "node", "osmid": 1823549383, "amenity": "drinking_water", "name": null, "opening_hours": null }, "geometry": { "type": "Point", "coordinates": [ -37.2763822, -7.023263 ] } },
{ "type": "Feature", "properties": { "element_type": "node", "osmid": 1823549387, "amenity": "restaurant", "name": "Pirão de Queijo", "opening_hours": null }, "geometry": { "type": "Point", "coordinates": [ -37.2750892, -7.0219426 ] } },
{ "type": "Feature", "properties": { "element_type": "node", "osmid": 1828168013, "amenity": "fast_food", "name": "Espetinho", "opening_hours": null }, "geometry": { "type": "Point", "coordinates": [ -37.2782666, -7.0230477 ] } },
{ "type": "Feature", "properties": { "element_type": "node", "osmid": 1828168022, "amenity": "bar", "name": "Bar do Cupim", "opening_hours": null }, "geometry": { "type": "Point", "coordinates": [ -37.2875367, -7.020158 ] } },
{ "type": "Feature", "properties": { "element_type": "node", "osmid": 1828168023, "amenity": "library", "name": "Biblioteca do Sesi", "opening_hours": null }, "geometry": { "type": "Point", "coordinates": [ -37.2832316, -7.0180282 ] } },
{ "type": "Feature", "properties": { "element_type": "node", "osmid": 1828169789, "amenity": "police", "name": "3º Batalhão de Polícia Militar", "opening_hours": null }, "geometry": { "type": "Point", "coordinates": [ -37.2854466, -7.0218181 ] } },
{ "type": "Feature", "properties": { "element_type": "node", "osmid": 1828171467, "amenity": "restaurant", "name": "Churrascaria Buena Brasa", "opening_hours": null }, "geometry": { "type": "Point", "coordinates": [ -37.2867158, -7.0141415 ] } },
{ "type": "Feature", "properties": { "element_type": "node", "osmid": 1828180239, "amenity": "toilets", "name": null, "opening_hours": null }, "geometry": { "type": "Point", "coordinates": [ -37.2988826, -7.0054067 ] } },
{ "type": "Feature", "properties": { "element_type": "node", "osmid": 1828182128, "amenity": "restaurant", "name": "Churrascaria \"O Rancho\"", "opening_hours": null }, "geometry": { "type": "Point", "coordinates": [ -37.2913748, -7.0101083 ] } },
{ "type": "Feature", "properties": { "element_type": "node", "osmid": 1835603267, "amenity": "drinking_water", "name": "Estação de Tratamento d'Água", "opening_hours": null }, "geometry": { "type": "Point", "coordinates": [ -37.2831058, -7.0304957 ] } },
{ "type": "Feature", "properties": { "element_type": "node", "osmid": 1835837996, "amenity": "love_hotel", "name": "Motel Shop House", "opening_hours": null }, "geometry": { "type": "Point", "coordinates": [ -37.2492111, -7.0199811 ] } },
{ "type": "Feature", "properties": { "element_type": "node", "osmid": 1835842665, "amenity": "police", "name": "Polícia Rodoviária Federal", "opening_hours": "Mo-Fr 08:00-17:00" }, "geometry": { "type": "Point", "coordinates": [ -37.2840879, -7.0170608 ] } },
{ "type": "Feature", "properties": { "element_type": "node", "osmid": 1837179723, "amenity": "taxi", "name": "Alternativos Coremas, Pombal.", "opening_hours": null }, "geometry": { "type": "Point", "coordinates": [ -37.278167, -7.0230066 ] } },
{ "type": "Feature", "properties": { "element_type": "node", "osmid": 1838986018, "amenity": "restaurant", "name": "Barolo", "opening_hours": null }, "geometry": { "type": "Point", "coordinates": [ -37.2813108, -7.0201291 ] } },
{ "type": "Feature", "properties": { "element_type": "node", "osmid": 1839241690, "amenity": "cafe", "name": "D'Café", "opening_hours": null }, "geometry": { "type": "Point", "coordinates": [ -37.2814656, -7.0278978 ] } },
{ "type": "Feature", "properties": { "element_type": "node", "osmid": 1839241694, "amenity": "cinema", "name": "Cine Guedes", "opening_hours": null }, "geometry": { "type": "Point", "coordinates": [ -37.2820159, -7.0282542 ] } },
{ "type": "Feature", "properties": { "element_type": "node", "osmid": 1877805572, "amenity": "fuel", "name": "Autoposto São Sebastião", "opening_hours": null }, "geometry": { "type": "Point", "coordinates": [ -37.2749251, -7.0156912 ] } },
{ "type": "Feature", "properties": { "element_type": "node", "osmid": 1879292484, "amenity": "courthouse", "name": "Fórum Bivar Olintho", "opening_hours": null }, "geometry": { "type": "Point", "coordinates": [ -37.2694585, -7.0250564 ] } },
{ "type": "Feature", "properties": { "element_type": "node", "osmid": 1928077856, "amenity": "bar", "name": "Espetinho do Nêgo", "opening_hours": null }, "geometry": { "type": "Point", "coordinates": [ -37.2710154, -7.0174225 ] } },
{ "type": "Feature", "properties": { "element_type": "node", "osmid": 1928077859, "amenity": "pharmacy", "name": "WalFarma", "opening_hours": null }, "geometry": { "type": "Point", "coordinates": [ -37.2742771, -7.0188068 ] } },
{ "type": "Feature", "properties": { "element_type": "node", "osmid": 1928077861, "amenity": "clinic", "name": "Unidade de Saúde Horácio Nóbrega", "opening_hours": null }, "geometry": { "type": "Point", "coordinates": [ -37.273778, -7.0185645 ] } },
{ "type": "Feature", "properties": { "element_type": "node", "osmid": 1928081361, "amenity": "waste_basket", "name": null, "opening_hours": null }, "geometry": { "type": "Point", "coordinates": [ -37.2749636, -7.019033 ] } },
{ "type": "Feature", "properties": { "element_type": "node", "osmid": 1928081365, "amenity": "waste_basket", "name": null, "opening_hours": null }, "geometry": { "type": "Point", "coordinates": [ -37.274969, -7.0191076 ] } },
{ "type": "Feature", "properties": { "element_type": "node", "osmid": 1928081369, "amenity": "bench", "name": null, "opening_hours": null }, "geometry": { "type": "Point", "coordinates": [ -37.2749234, -7.019089 ] } },
{ "type": "Feature", "properties": { "element_type": "node", "osmid": 1928081371, "amenity": "pharmacy", "name": "Farmácias São Sebastião", "opening_hours": null }, "geometry": { "type": "Point", "coordinates": [ -37.27513, -7.0190385 ] } },
{ "type": "Feature", "properties": { "element_type": "node", "osmid": 1928081376, "amenity": "bench", "name": null, "opening_hours": null }, "geometry": { "type": "Point", "coordinates": [ -37.2749153, -7.0190437 ] } },
{ "type": "Feature", "properties": { "element_type": "node", "osmid": 1928084654, "amenity": "bar", "name": "Bar Os Três Porquinhos", "opening_hours": null }, "geometry": { "type": "Point", "coordinates": [ -37.2752801, -7.0199887 ] } },
{ "type": "Feature", "properties": { "element_type": "node", "osmid": 1928103146, "amenity": "school", "name": "Instituto Educacional Branca de Neve", "opening_hours": null }, "geometry": { "type": "Point", "coordinates": [ -37.27664, -7.0234867 ] } },
{ "type": "Feature", "properties": { "element_type": "node", "osmid": 1955056566, "amenity": "bar", "name": "Copacabana Bar", "opening_hours": null }, "geometry": { "type": "Point", "coordinates": [ -37.262969, -7.0194267 ] } },
{ "type": "Feature", "properties": { "element_type": "node", "osmid": 1955056575, "amenity": "bar", "name": "Bar do Chico", "opening_hours": null }, "geometry": { "type": "Point", "coordinates": [ -37.2635484, -7.0197036 ] } },
{ "type": "Feature", "properties": { "element_type": "node", "osmid": 1967475109, "amenity": "bar", "name": "Bar da Branca", "opening_hours": null }, "geometry": { "type": "Point", "coordinates": [ -37.2875152, -7.0121375 ] } },
{ "type": "Feature", "properties": { "element_type": "node", "osmid": 1975236995, "amenity": "fast_food", "name": "Bob's", "opening_hours": null }, "geometry": { "type": "Point", "coordinates": [ -37.2774015, -7.025065 ] } },
{ "type": "Feature", "properties": { "element_type": "node", "osmid": 1975237000, "amenity": "pharmacy", "name": "Farmácia João Paulo II", "opening_hours": null }, "geometry": { "type": "Point", "coordinates": [ -37.2773895, -7.0259347 ] } },
{ "type": "Feature", "properties": { "element_type": "node", "osmid": 1975237010, "amenity": "pharmacy", "name": "Farmácia Pró Saúde", "opening_hours": null }, "geometry": { "type": "Point", "coordinates": [ -37.2772292, -7.0255331 ] } },
{ "type": "Feature", "properties": { "element_type": "node", "osmid": 1975237011, "amenity": "fast_food", "name": "Caldo de Cana e Lanchonete Central", "opening_hours": null }, "geometry": { "type": "Point", "coordinates": [ -37.2773446, -7.0249605 ] } },
{ "type": "Feature", "properties": { "element_type": "node", "osmid": 1975237013, "amenity": "pharmacy", "name": "Farmácia dos Trabalhadores", "opening_hours": null }, "geometry": { "type": "Point", "coordinates": [ -37.277341, -7.0260355 ] } },
{ "type": "Feature", "properties": { "element_type": "node", "osmid": 1975251823, "amenity": "bus_station", "name": "Terminal de Integração de Patos", "opening_hours": null }, "geometry": { "type": "Point", "coordinates": [ -37.2772252, -7.0224808 ] } },
{ "type": "Feature", "properties": { "element_type": "node", "osmid": 1975258065, "amenity": "atm", "name": "Banco24Horas", "opening_hours": null }, "geometry": { "type": "Point", "coordinates": [ -37.2791876, -7.0204395 ] } },
{ "type": "Feature", "properties": { "element_type": "node", "osmid": 1976897400, "amenity": "fuel", "name": "Auto Posto Teixeira", "opening_hours": null }, "geometry": { "type": "Point", "coordinates": [ -37.284743, -7.0712741 ] } },
{ "type": "Feature", "properties": { "element_type": "node", "osmid": 1985822649, "amenity": "fuel", "name": "Posto Almeidão", "opening_hours": null }, "geometry": { "type": "Point", "coordinates": [ -37.2769842, -7.0431748 ] } },
{ "type": "Feature", "properties": { "element_type": "node", "osmid": 2022928871, "amenity": "clinic", "name": "Centro Médico Frei Damião", "opening_hours": null }, "geometry": { "type": "Point", "coordinates": [ -37.2761549, -7.0266711 ] } },
{ "type": "Feature", "properties": { "element_type": "node", "osmid": 2026413601, "amenity": "fast_food", "name": "Lanchonete 5 Estrelas", "opening_hours": null }, "geometry": { "type": "Point", "coordinates": [ -37.2780987, -7.0237325 ] } },
{ "type": "Feature", "properties": { "element_type": "node", "osmid": 2026413605, "amenity": "fast_food", "name": "Burger's", "opening_hours": null }, "geometry": { "type": "Point", "coordinates": [ -37.2783187, -7.0239471 ] } },
{ "type": "Feature", "properties": { "element_type": "node", "osmid": 2026413606, "amenity": "fast_food", "name": "Marinaldo Lanches", "opening_hours": null }, "geometry": { "type": "Point", "coordinates": [ -37.278221, -7.023427 ] } },
{ "type": "Feature", "properties": { "element_type": "node", "osmid": 2026413607, "amenity": "fast_food", "name": "Center Lanches", "opening_hours": null }, "geometry": { "type": "Point", "coordinates": [ -37.2781187, -7.0236826 ] } },
{ "type": "Feature", "properties": { "element_type": "node", "osmid": 2026413611, "amenity": "pharmacy", "name": "Pague Menos", "opening_hours": null }, "geometry": { "type": "Point", "coordinates": [ -37.2806174, -7.0279216 ] } },
{ "type": "Feature", "properties": { "element_type": "node", "osmid": 2026413612, "amenity": "taxi", "name": "Moto Táxi Rodoviária Velha", "opening_hours": null }, "geometry": { "type": "Point", "coordinates": [ -37.2765914, -7.0223951 ] } },
{ "type": "Feature", "properties": { "element_type": "node", "osmid": 2026413613, "amenity": "fast_food", "name": "Pizzaria Capricho", "opening_hours": null }, "geometry": { "type": "Point", "coordinates": [ -37.278258, -7.0233345 ] } },
{ "type": "Feature", "properties": { "element_type": "node", "osmid": 2026431898, "amenity": "taxi", "name": "Moto Táxi Recanto do Sabor", "opening_hours": null }, "geometry": { "type": "Point", "coordinates": [ -37.2776562, -7.0229728 ] } },
{ "type": "Feature", "properties": { "element_type": "node", "osmid": 2026431911, "amenity": "restaurant", "name": "Recanto do Sabor", "opening_hours": null }, "geometry": { "type": "Point", "coordinates": [ -37.2777877, -7.0228104 ] } },
{ "type": "Feature", "properties": { "element_type": "node", "osmid": 2026431948, "amenity": "toilets", "name": null, "opening_hours": null }, "geometry": { "type": "Point", "coordinates": [ -37.276586, -7.0236623 ] } },
{ "type": "Feature", "properties": { "element_type": "node", "osmid": 2040129249, "amenity": "bus_station", "name": "Terminal Rodoviário de Patos", "opening_hours": null }, "geometry": { "type": "Point", "coordinates": [ -37.2593848, -7.0194393 ] } },
{ "type": "Feature", "properties": { "element_type": "node", "osmid": 2337530944, "amenity": "nightclub", "name": "Colliseum Hall", "opening_hours": null }, "geometry": { "type": "Point", "coordinates": [ -37.3124051, -7.0349833 ] } },
{ "type": "Feature", "properties": { "element_type": "node", "osmid": 2457619692, "amenity": "fast_food", "name": "Subway", "opening_hours": null }, "geometry": { "type": "Point", "coordinates": [ -37.277151, -7.024592 ] } },
{ "type": "Feature", "properties": { "element_type": "node", "osmid": 2458209590, "amenity": "bar", "name": "Infernos Bar", "opening_hours": "We-Fr 20:00-03:00; Sa-Su 20:00-02:00" }, "geometry": { "type": "Point", "coordinates": [ -37.2773277, -7.0291244 ] } },
{ "type": "Feature", "properties": { "element_type": "node", "osmid": 2508985537, "amenity": "pharmacy", "name": "Farmácias Pague Menos", "opening_hours": null }, "geometry": { "type": "Point", "coordinates": [ -37.2775277, -7.0276276 ] } },
{ "type": "Feature", "properties": { "element_type": "node", "osmid": 2509899470, "amenity": "car_rental", "name": "Localiza", "opening_hours": null }, "geometry": { "type": "Point", "coordinates": [ -37.2714894, -7.0235357 ] } },
{ "type": "Feature", "properties": { "element_type": "node", "osmid": 2509899473, "amenity": "clinic", "name": "UBS Haydee Medeiros", "opening_hours": null }, "geometry": { "type": "Point", "coordinates": [ -37.2724047, -7.0239404 ] } },
{ "type": "Feature", "properties": { "element_type": "node", "osmid": 2818538273, "amenity": "fast_food", "name": "Tocofome", "opening_hours": null }, "geometry": { "type": "Point", "coordinates": [ -37.2654439, -7.0215637 ] } },
{ "type": "Feature", "properties": { "element_type": "node", "osmid": 2818538278, "amenity": "taxi", "name": "Moto táxi AABB", "opening_hours": null }, "geometry": { "type": "Point", "coordinates": [ -37.2651623, -7.0208209 ] } },
{ "type": "Feature", "properties": { "element_type": "node", "osmid": 2818688153, "amenity": "police", "name": "Delegacia da Polícia Federal em Patos", "opening_hours": null }, "geometry": { "type": "Point", "coordinates": [ -37.264253, -7.023089 ] } },
{ "type": "Feature", "properties": { "element_type": "node", "osmid": 3837420191, "amenity": "bicycle_parking", "name": null, "opening_hours": null }, "geometry": { "type": "Point", "coordinates": [ -37.2774537, -7.026688 ] } },
{ "type": "Feature", "properties": { "element_type": "node", "osmid": 3837420192, "amenity": "bicycle_parking", "name": null, "opening_hours": null }, "geometry": { "type": "Point", "coordinates": [ -37.2768267, -7.0263602 ] } },
{ "type": "Feature", "properties": { "element_type": "node", "osmid": 3837420193, "amenity": "clock", "name": "Torre do Relógio", "opening_hours": null }, "geometry": { "type": "Point", "coordinates": [ -37.2770139, -7.0263604 ] } },
{ "type": "Feature", "properties": { "element_type": "node", "osmid": 3861683621, "amenity": "atm", "name": "Banco24Horas", "opening_hours": null }, "geometry": { "type": "Point", "coordinates": [ -37.2817771, -7.0280019 ] } },
{ "type": "Feature", "properties": { "element_type": "node", "osmid": 4199268939, "amenity": "pub", "name": "County Bar", "opening_hours": null }, "geometry": { "type": "Point", "coordinates": [ -37.2766104, -7.0256378 ] } },
{ "type": "Feature", "properties": { "element_type": "node", "osmid": 4217716089, "amenity": "language_school", "name": "CCAA", "opening_hours": null }, "geometry": { "type": "Point", "coordinates": [ -37.2800356, -7.0139439 ] } },
{ "type": "Feature", "properties": { "element_type": "node", "osmid": 4224721722, "amenity": "pharmacy", "name": "Farmácia dos Municípios", "opening_hours": null }, "geometry": { "type": "Point", "coordinates": [ -37.2782818, -7.0268323 ] } },
{ "type": "Feature", "properties": { "element_type": "node", "osmid": 4224721726, "amenity": "fast_food", "name": "Max Lanche", "opening_hours": null }, "geometry": { "type": "Point", "coordinates": [ -37.2776869, -7.0265499 ] } },
{ "type": "Feature", "properties": { "element_type": "node", "osmid": 4224721728, "amenity": "pharmacy", "name": "Redepharma", "opening_hours": null }, "geometry": { "type": "Point", "coordinates": [ -37.278209, -7.0267977 ] } },
{ "type": "Feature", "properties": { "element_type": "node", "osmid": 4224723002, "amenity": "pharmacy", "name": "Pague Menos", "opening_hours": null }, "geometry": { "type": "Point", "coordinates": [ -37.2801407, -7.0209411 ] } },
{ "type": "Feature", "properties": { "element_type": "node", "osmid": 4224723003, "amenity": "pharmacy", "name": "Mega Pharma", "opening_hours": null }, "geometry": { "type": "Point", "coordinates": [ -37.2771773, -7.0256487 ] } },
{ "type": "Feature", "properties": { "element_type": "node", "osmid": 4224723004, "amenity": "pharmacy", "name": "Redepharma", "opening_hours": null }, "geometry": { "type": "Point", "coordinates": [ -37.2765996, -7.0278792 ] } },
{ "type": "Feature", "properties": { "element_type": "node", "osmid": 4305327726, "amenity": "restaurant", "name": "Restaurante Maria Zegaib", "opening_hours": null }, "geometry": { "type": "Point", "coordinates": [ -37.2762965, -7.0258288 ] } },
{ "type": "Feature", "properties": { "element_type": "node", "osmid": 4395576550, "amenity": "fuel", "name": "Posto Almeida", "opening_hours": null }, "geometry": { "type": "Point", "coordinates": [ -37.283481, -7.029246 ] } },
{ "type": "Feature", "properties": { "element_type": "node", "osmid": 4395576551, "amenity": "fuel", "name": null, "opening_hours": null }, "geometry": { "type": "Point", "coordinates": [ -37.2844962, -7.027513 ] } },
{ "type": "Feature", "properties": { "element_type": "node", "osmid": 4452476514, "amenity": "place_of_worship", "name": "Catedral de Nossa Senhora da Guia", "opening_hours": null }, "geometry": { "type": "Point", "coordinates": [ -37.2760785, -7.0279323 ] } },
{ "type": "Feature", "properties": { "element_type": "node", "osmid": 4474143070, "amenity": "place_of_worship", "name": "Igreja de São Sebastião", "opening_hours": null }, "geometry": { "type": "Point", "coordinates": [ -37.2747157, -7.0184436 ] } },
{ "type": "Feature", "properties": { "element_type": "node", "osmid": 4483229066, "amenity": "parking", "name": null, "opening_hours": null }, "geometry": { "type": "Point", "coordinates": [ -37.2600612, -7.0191124 ] } },
{ "type": "Feature", "properties": { "element_type": "node", "osmid": 4483229068, "amenity": "parking", "name": null, "opening_hours": null }, "geometry": { "type": "Point", "coordinates": [ -37.2600586, -7.0190153 ] } },
{ "type": "Feature", "properties": { "element_type": "node", "osmid": 4483229076, "amenity": "taxi", "name": null, "opening_hours": null }, "geometry": { "type": "Point", "coordinates": [ -37.2597146, -7.0194198 ] } },
{ "type": "Feature", "properties": { "element_type": "node", "osmid": 4483229077, "amenity": "parking", "name": null, "opening_hours": null }, "geometry": { "type": "Point", "coordinates": [ -37.260072, -7.0193334 ] } },
{ "type": "Feature", "properties": { "element_type": "node", "osmid": 4483229079, "amenity": "parking", "name": null, "opening_hours": null }, "geometry": { "type": "Point", "coordinates": [ -37.2600626, -7.0192096 ] } },
{ "type": "Feature", "properties": { "element_type": "node", "osmid": 4501622944, "amenity": "library", "name": "Biblioteca UNIFIP", "opening_hours": null }, "geometry": { "type": "Point", "coordinates": [ -37.2788174, -7.0211139 ] } },
{ "type": "Feature", "properties": { "element_type": "node", "osmid": 4530660153, "amenity": "parking", "name": null, "opening_hours": null }, "geometry": { "type": "Point", "coordinates": [ -37.259423, -7.0189305 ] } },
{ "type": "Feature", "properties": { "element_type": "node", "osmid": 4530660154, "amenity": "parking", "name": null, "opening_hours": null }, "geometry": { "type": "Point", "coordinates": [ -37.2589858, -7.0193684 ] } },
{ "type": "Feature", "properties": { "element_type": "node", "osmid": 4579930033, "amenity": "fast_food", "name": "Disneylanche", "opening_hours": null }, "geometry": { "type": "Point", "coordinates": [ -37.2795165, -7.0217184 ] } },
{ "type": "Feature", "properties": { "element_type": "node", "osmid": 4580388503, "amenity": "toilets", "name": null, "opening_hours": null }, "geometry": { "type": "Point", "coordinates": [ -37.27925, -7.0278898 ] } },
{ "type": "Feature", "properties": { "element_type": "node", "osmid": 4580388504, "amenity": "toilets", "name": null, "opening_hours": null }, "geometry": { "type": "Point", "coordinates": [ -37.2792323, -7.0278823 ] } },
{ "type": "Feature", "properties": { "element_type": "node", "osmid": 4580426196, "amenity": "toilets", "name": null, "opening_hours": null }, "geometry": { "type": "Point", "coordinates": [ -37.2797465, -7.0282926 ] } },
{ "type": "Feature", "properties": { "element_type": "node", "osmid": 4580426197, "amenity": "toilets", "name": null, "opening_hours": null }, "geometry": { "type": "Point", "coordinates": [ -37.2797149, -7.0282895 ] } },
{ "type": "Feature", "properties": { "element_type": "node", "osmid": 4664599005, "amenity": "ice_cream", "name": "Bob's Shakes", "opening_hours": null }, "geometry": { "type": "Point", "coordinates": [ -37.2777504, -7.0274539 ] } },
{ "type": "Feature", "properties": { "element_type": "node", "osmid": 4664646338, "amenity": "car_wash", "name": "Lava Jato Guedes Shopping", "opening_hours": null }, "geometry": { "type": "Point", "coordinates": [ -37.2821977, -7.0273404 ] } },
{ "type": "Feature", "properties": { "element_type": "node", "osmid": 4664646342, "amenity": "restaurant", "name": "Donatário", "opening_hours": null }, "geometry": { "type": "Point", "coordinates": [ -37.281568, -7.0278992 ] } },
{ "type": "Feature", "properties": { "element_type": "node", "osmid": 4664646343, "amenity": "restaurant", "name": "Bonaparte", "opening_hours": null }, "geometry": { "type": "Point", "coordinates": [ -37.2815124, -7.0278745 ] } },
{ "type": "Feature", "properties": { "element_type": "node", "osmid": 4664646344, "amenity": "restaurant", "name": "China Patos", "opening_hours": null }, "geometry": { "type": "Point", "coordinates": [ -37.2814688, -7.0278512 ] } },
{ "type": "Feature", "properties": { "element_type": "node", "osmid": 4664646345, "amenity": "bar", "name": "Vila Madalena", "opening_hours": null }, "geometry": { "type": "Point", "coordinates": [ -37.2814219, -7.0278346 ] } },
{ "type": "Feature", "properties": { "element_type": "node", "osmid": 4664646356, "amenity": "cafe", "name": "D' Café", "opening_hours": null }, "geometry": { "type": "Point", "coordinates": [ -37.2816901, -7.0280739 ] } },
{ "type": "Feature", "properties": { "element_type": "node", "osmid": 4664646362, "amenity": "ice_cream", "name": "Gelateria", "opening_hours": null }, "geometry": { "type": "Point", "coordinates": [ -37.2816485, -7.0280975 ] } },
{ "type": "Feature", "properties": { "element_type": "node", "osmid": 4745888722, "amenity": "post_box", "name": null, "opening_hours": null }, "geometry": { "type": "Point", "coordinates": [ -37.2751956, -7.0287555 ] } },
{ "type": "Feature", "properties": { "element_type": "node", "osmid": 4837637325, "amenity": "pharmacy", "name": "Farmácia do Trabalhador", "opening_hours": null }, "geometry": { "type": "Point", "coordinates": [ -37.2783062, -7.024046 ] } },
{ "type": "Feature", "properties": { "element_type": "node", "osmid": 4837637326, "amenity": "restaurant", "name": "Zeca's", "opening_hours": null }, "geometry": { "type": "Point", "coordinates": [ -37.2781915, -7.0242846 ] } },
{ "type": "Feature", "properties": { "element_type": "node", "osmid": 4837658621, "amenity": "bar", "name": "Bar Café", "opening_hours": null }, "geometry": { "type": "Point", "coordinates": [ -37.2782764, -7.024115 ] } },
{ "type": "Feature", "properties": { "element_type": "node", "osmid": 4837658624, "amenity": "fast_food", "name": "Lanchonete Central", "opening_hours": null }, "geometry": { "type": "Point", "coordinates": [ -37.2776426, -7.0230337 ] } },
{ "type": "Feature", "properties": { "element_type": "node", "osmid": 4837658721, "amenity": "fast_food", "name": null, "opening_hours": null }, "geometry": { "type": "Point", "coordinates": [ -37.2782381, -7.0241916 ] } },
{ "type": "Feature", "properties": { "element_type": "node", "osmid": 4837726399, "amenity": "ice_cream", "name": "Chiquinho's", "opening_hours": null }, "geometry": { "type": "Point", "coordinates": [ -37.2779954, -7.0246967 ] } },
{ "type": "Feature", "properties": { "element_type": "node", "osmid": 4838865902, "amenity": "pub", "name": "Sampa Beer", "opening_hours": null }, "geometry": { "type": "Point", "coordinates": [ -37.2966769, -7.0324935 ] } },
{ "type": "Feature", "properties": { "element_type": "node", "osmid": 4838865907, "amenity": "fuel", "name": "Auto Posto Bivar Olinto", "opening_hours": null }, "geometry": { "type": "Point", "coordinates": [ -37.2987328, -7.0335776 ] } },
{ "type": "Feature", "properties": { "element_type": "node", "osmid": 4852093632, "amenity": "toilets", "name": null, "opening_hours": null }, "geometry": { "type": "Point", "coordinates": [ -37.2894075, -7.043648 ] } },
{ "type": "Feature", "properties": { "element_type": "node", "osmid": 4854105824, "amenity": "car_wash", "name": "Lava Jato Brasília", "opening_hours": null }, "geometry": { "type": "Point", "coordinates": [ -37.2699464, -7.0232385 ] } },
{ "type": "Feature", "properties": { "element_type": "node", "osmid": 4854106721, "amenity": "restaurant", "name": "Renascer", "opening_hours": null }, "geometry": { "type": "Point", "coordinates": [ -37.2703583, -7.0229203 ] } },
{ "type": "Feature", "properties": { "element_type": "node", "osmid": 4884372624, "amenity": "car_wash", "name": "Lava Jato American Car", "opening_hours": null }, "geometry": { "type": "Point", "coordinates": [ -37.2790519, -7.0245171 ] } },
{ "type": "Feature", "properties": { "element_type": "node", "osmid": 4884522455, "amenity": "police", "name": "PBTrans", "opening_hours": null }, "geometry": { "type": "Point", "coordinates": [ -37.2805247, -7.0131551 ] } },
{ "type": "Feature", "properties": { "element_type": "node", "osmid": 4884522483, "amenity": "language_school", "name": "Wizard", "opening_hours": null }, "geometry": { "type": "Point", "coordinates": [ -37.2746775, -7.0259934 ] } },
{ "type": "Feature", "properties": { "element_type": "node", "osmid": 4884522484, "amenity": "language_school", "name": "Cultura Inglesa", "opening_hours": null }, "geometry": { "type": "Point", "coordinates": [ -37.2712482, -7.0241619 ] } },
{ "type": "Feature", "properties": { "element_type": "node", "osmid": 4889695482, "amenity": "bar", "name": "Peixada do Donato", "opening_hours": null }, "geometry": { "type": "Point", "coordinates": [ -37.2755885, -7.053494 ] } },
{ "type": "Feature", "properties": { "element_type": "node", "osmid": 4890057824, "amenity": "register_office", "name": "Cartório Céu Palmeira", "opening_hours": null }, "geometry": { "type": "Point", "coordinates": [ -37.278369, -7.0244427 ] } },
{ "type": "Feature", "properties": { "element_type": "node", "osmid": 4890071222, "amenity": "restaurant", "name": "Sabor da Terra", "opening_hours": null }, "geometry": { "type": "Point", "coordinates": [ -37.2778646, -7.024035 ] } },
{ "type": "Feature", "properties": { "element_type": "node", "osmid": 4894295010, "amenity": "parking_entrance", "name": "Morada do Sol", "opening_hours": null }, "geometry": { "type": "Point", "coordinates": [ -37.2781949, -7.0221744 ] } },
{ "type": "Feature", "properties": { "element_type": "node", "osmid": 4894503257, "amenity": "telephone", "name": null, "opening_hours": null }, "geometry": { "type": "Point", "coordinates": [ -37.2770844, -7.0225963 ] } },
{ "type": "Feature", "properties": { "element_type": "node", "osmid": 4894503266, "amenity": "bench", "name": null, "opening_hours": null }, "geometry": { "type": "Point", "coordinates": [ -37.2770753, -7.0225246 ] } },
{ "type": "Feature", "properties": { "element_type": "node", "osmid": 4894503267, "amenity": "bench", "name": null, "opening_hours": null }, "geometry": { "type": "Point", "coordinates": [ -37.2771189, -7.0225406 ] } },
{ "type": "Feature", "properties": { "element_type": "node", "osmid": 4894503268, "amenity": "telephone", "name": null, "opening_hours": null }, "geometry": { "type": "Point", "coordinates": [ -37.2771099, -7.0225501 ] } },
{ "type": "Feature", "properties": { "element_type": "node", "osmid": 4894503269, "amenity": "telephone", "name": null, "opening_hours": null }, "geometry": { "type": "Point", "coordinates": [ -37.2770898, -7.0226013 ] } },
{ "type": "Feature", "properties": { "element_type": "node", "osmid": 4894503270, "amenity": "telephone", "name": null, "opening_hours": null }, "geometry": { "type": "Point", "coordinates": [ -37.2770914, -7.0225937 ] } },
{ "type": "Feature", "properties": { "element_type": "node", "osmid": 4894503271, "amenity": "bench", "name": null, "opening_hours": null }, "geometry": { "type": "Point", "coordinates": [ -37.2770458, -7.022587 ] } },
{ "type": "Feature", "properties": { "element_type": "node", "osmid": 4894503272, "amenity": "bench", "name": null, "opening_hours": null }, "geometry": { "type": "Point", "coordinates": [ -37.2771072, -7.022609 ] } },
{ "type": "Feature", "properties": { "element_type": "node", "osmid": 4894503291, "amenity": "bench", "name": null, "opening_hours": null }, "geometry": { "type": "Point", "coordinates": [ -37.2769141, -7.0225131 ] } },
{ "type": "Feature", "properties": { "element_type": "node", "osmid": 4894503292, "amenity": "bench", "name": null, "opening_hours": null }, "geometry": { "type": "Point", "coordinates": [ -37.2769617, -7.0225304 ] } },
{ "type": "Feature", "properties": { "element_type": "node", "osmid": 4894503293, "amenity": "bench", "name": null, "opening_hours": null }, "geometry": { "type": "Point", "coordinates": [ -37.2771702, -7.0226026 ] } },
{ "type": "Feature", "properties": { "element_type": "node", "osmid": 4894503294, "amenity": "bench", "name": null, "opening_hours": null }, "geometry": { "type": "Point", "coordinates": [ -37.2772051, -7.0226159 ] } },
{ "type": "Feature", "properties": { "element_type": "node", "osmid": 4894503307, "amenity": "toilets", "name": null, "opening_hours": null }, "geometry": { "type": "Point", "coordinates": [ -37.276953, -7.0224426 ] } },
{ "type": "Feature", "properties": { "element_type": "node", "osmid": 4894503308, "amenity": "toilets", "name": null, "opening_hours": null }, "geometry": { "type": "Point", "coordinates": [ -37.2769684, -7.0224027 ] } },
{ "type": "Feature", "properties": { "element_type": "node", "osmid": 4913739842, "amenity": "bar", "name": "Espetinho do Marrocos", "opening_hours": null }, "geometry": { "type": "Point", "coordinates": [ -37.2800572, -7.0200586 ] } },
{ "type": "Feature", "properties": { "element_type": "node", "osmid": 4913746734, "amenity": "music_school", "name": "Escola de Música Kairós", "opening_hours": null }, "geometry": { "type": "Point", "coordinates": [ -37.2811081, -7.0203679 ] } },
{ "type": "Feature", "properties": { "element_type": "node", "osmid": 4930629026, "amenity": "bar", "name": "Neném Variedades", "opening_hours": null }, "geometry": { "type": "Point", "coordinates": [ -37.2620384, -7.0140887 ] } },
{ "type": "Feature", "properties": { "element_type": "node", "osmid": 4934340067, "amenity": "bench", "name": null, "opening_hours": null }, "geometry": { "type": "Point", "coordinates": [ -37.2773147, -7.0242892 ] } },
{ "type": "Feature", "properties": { "element_type": "node", "osmid": 4934340068, "amenity": "bench", "name": null, "opening_hours": null }, "geometry": { "type": "Point", "coordinates": [ -37.2773697, -7.0243754 ] } },
{ "type": "Feature", "properties": { "element_type": "node", "osmid": 4934340069, "amenity": "bench", "name": null, "opening_hours": null }, "geometry": { "type": "Point", "coordinates": [ -37.2774344, -7.0245767 ] } },
{ "type": "Feature", "properties": { "element_type": "node", "osmid": 4934340070, "amenity": "bench", "name": null, "opening_hours": null }, "geometry": { "type": "Point", "coordinates": [ -37.277487, -7.0246442 ] } },
{ "type": "Feature", "properties": { "element_type": "node", "osmid": 4934340071, "amenity": "bench", "name": null, "opening_hours": null }, "geometry": { "type": "Point", "coordinates": [ -37.2776309, -7.0246649 ] } },
{ "type": "Feature", "properties": { "element_type": "node", "osmid": 4934340072, "amenity": "bench", "name": null, "opening_hours": null }, "geometry": { "type": "Point", "coordinates": [ -37.2776775, -7.0245234 ] } },
{ "type": "Feature", "properties": { "element_type": "node", "osmid": 4934340073, "amenity": "bench", "name": null, "opening_hours": null }, "geometry": { "type": "Point", "coordinates": [ -37.2777603, -7.0243467 ] } },
{ "type": "Feature", "properties": { "element_type": "node", "osmid": 4934340074, "amenity": "bench", "name": null, "opening_hours": null }, "geometry": { "type": "Point", "coordinates": [ -37.2776372, -7.024219 ] } },
{ "type": "Feature", "properties": { "element_type": "node", "osmid": 4934340075, "amenity": "bench", "name": null, "opening_hours": null }, "geometry": { "type": "Point", "coordinates": [ -37.2775051, -7.0242143 ] } },
{ "type": "Feature", "properties": { "element_type": "node", "osmid": 4934342004, "amenity": "bench", "name": null, "opening_hours": null }, "geometry": { "type": "Point", "coordinates": [ -37.2775099, -7.0245152 ] } },
{ "type": "Feature", "properties": { "element_type": "node", "osmid": 4934342005, "amenity": "bench", "name": null, "opening_hours": null }, "geometry": { "type": "Point", "coordinates": [ -37.277455, -7.0244758 ] } },
{ "type": "Feature", "properties": { "element_type": "node", "osmid": 4934342006, "amenity": "bench", "name": null, "opening_hours": null }, "geometry": { "type": "Point", "coordinates": [ -37.2774292, -7.0244228 ] } },
{ "type": "Feature", "properties": { "element_type": "node", "osmid": 4934342007, "amenity": "bench", "name": null, "opening_hours": null }, "geometry": { "type": "Point", "coordinates": [ -37.2774339, -7.0243492 ] } },
{ "type": "Feature", "properties": { "element_type": "node", "osmid": 4934342008, "amenity": "bench", "name": null, "opening_hours": null }, "geometry": { "type": "Point", "coordinates": [ -37.2774723, -7.0242975 ] } },
{ "type": "Feature", "properties": { "element_type": "node", "osmid": 4934342009, "amenity": "bench", "name": null, "opening_hours": null }, "geometry": { "type": "Point", "coordinates": [ -37.2775372, -7.0242696 ] } },
{ "type": "Feature", "properties": { "element_type": "node", "osmid": 4934342010, "amenity": "bench", "name": null, "opening_hours": null }, "geometry": { "type": "Point", "coordinates": [ -37.277601, -7.0242766 ] } },
{ "type": "Feature", "properties": { "element_type": "node", "osmid": 4934342011, "amenity": "bench", "name": null, "opening_hours": null }, "geometry": { "type": "Point", "coordinates": [ -37.2776472, -7.0243084 ] } },
{ "type": "Feature", "properties": { "element_type": "node", "osmid": 4934342012, "amenity": "bench", "name": null, "opening_hours": null }, "geometry": { "type": "Point", "coordinates": [ -37.2776771, -7.0243564 ] } },
{ "type": "Feature", "properties": { "element_type": "node", "osmid": 4934342013, "amenity": "bench", "name": null, "opening_hours": null }, "geometry": { "type": "Point", "coordinates": [ -37.2776808, -7.0244155 ] } },
{ "type": "Feature", "properties": { "element_type": "node", "osmid": 4934342014, "amenity": "bench", "name": null, "opening_hours": null }, "geometry": { "type": "Point", "coordinates": [ -37.277649, -7.0244806 ] } },
{ "type": "Feature", "properties": { "element_type": "node", "osmid": 4934342015, "amenity": "bench", "name": null, "opening_hours": null }, "geometry": { "type": "Point", "coordinates": [ -37.2775828, -7.0245202 ] } },
{ "type": "Feature", "properties": { "element_type": "node", "osmid": 4935637587, "amenity": "taxi", "name": "Alternativos Itaporanga, Piancó.", "opening_hours": null }, "geometry": { "type": "Point", "coordinates": [ -37.2763042, -7.0277208 ] } },
{ "type": "Feature", "properties": { "element_type": "node", "osmid": 4935637588, "amenity": "taxi", "name": "Alternativos Brejinho, Itapetim, São José do Egito.", "opening_hours": null }, "geometry": { "type": "Point", "coordinates": [ -37.2775394, -7.0277737 ] } },
{ "type": "Feature", "properties": { "element_type": "node", "osmid": 4935637589, "amenity": "taxi", "name": "Alternativos São Mamede, Santa Luzia.", "opening_hours": null }, "geometry": { "type": "Point", "coordinates": [ -37.2747136, -7.0255123 ] } },
{ "type": "Feature", "properties": { "element_type": "node", "osmid": 4935637590, "amenity": "taxi", "name": "Alternativos Malta.", "opening_hours": null }, "geometry": { "type": "Point", "coordinates": [ -37.2806427, -7.0275364 ] } },
{ "type": "Feature", "properties": { "element_type": "node", "osmid": 4935637591, "amenity": "taxi", "name": "Alternativos Condado, Malta e Santa Gertrudes", "opening_hours": null }, "geometry": { "type": "Point", "coordinates": [ -37.279212, -7.0272282 ] } },
{ "type": "Feature", "properties": { "element_type": "node", "osmid": 4936178828, "amenity": "pharmacy", "name": "Emporio Pharma", "opening_hours": null }, "geometry": { "type": "Point", "coordinates": [ -37.275622, -7.0258691 ] } },
{ "type": "Feature", "properties": { "element_type": "node", "osmid": 4936178884, "amenity": "restaurant", "name": "Domnas Bistrô", "opening_hours": null }, "geometry": { "type": "Point", "coordinates": [ -37.2769889, -7.0255718 ] } },
{ "type": "Feature", "properties": { "element_type": "node", "osmid": 4940991422, "amenity": "clinic", "name": "Policlinica", "opening_hours": null }, "geometry": { "type": "Point", "coordinates": [ -37.2753285, -7.0256562 ] } },
{ "type": "Feature", "properties": { "element_type": "node", "osmid": 4940991423, "amenity": "bar", "name": "Bar do Isaac", "opening_hours": null }, "geometry": { "type": "Point", "coordinates": [ -37.2839419, -7.0706715 ] } },
{ "type": "Feature", "properties": { "element_type": "node", "osmid": 4940991522, "amenity": "fuel", "name": "Posto Beira Rio", "opening_hours": null }, "geometry": { "type": "Point", "coordinates": [ -37.2728084, -7.0498476 ] } },
{ "type": "Feature", "properties": { "element_type": "node", "osmid": 4941354067, "amenity": "bench", "name": null, "opening_hours": null }, "geometry": { "type": "Point", "coordinates": [ -37.2776163, -7.0245073 ] } },
{ "type": "Feature", "properties": { "element_type": "node", "osmid": 4941354068, "amenity": "bench", "name": null, "opening_hours": null }, "geometry": { "type": "Point", "coordinates": [ -37.2776829, -7.0243873 ] } },
{ "type": "Feature", "properties": { "element_type": "node", "osmid": 4941354069, "amenity": "bench", "name": null, "opening_hours": null }, "geometry": { "type": "Point", "coordinates": [ -37.2776254, -7.0242902 ] } },
{ "type": "Feature", "properties": { "element_type": "node", "osmid": 4941354070, "amenity": "bench", "name": null, "opening_hours": null }, "geometry": { "type": "Point", "coordinates": [ -37.2775005, -7.0242806 ] } },
{ "type": "Feature", "properties": { "element_type": "node", "osmid": 4941354071, "amenity": "bench", "name": null, "opening_hours": null }, "geometry": { "type": "Point", "coordinates": [ -37.2774282, -7.0243848 ] } },
{ "type": "Feature", "properties": { "element_type": "node", "osmid": 4941354072, "amenity": "bench", "name": null, "opening_hours": null }, "geometry": { "type": "Point", "coordinates": [ -37.2774779, -7.0244984 ] } },
{ "type": "Feature", "properties": { "element_type": "node", "osmid": 4943999426, "amenity": "fuel", "name": "Almeida", "opening_hours": null }, "geometry": { "type": "Point", "coordinates": [ -37.2751296, -7.0491665 ] } },
{ "type": "Feature", "properties": { "element_type": "node", "osmid": 4943999431, "amenity": "fast_food", "name": "Explosão de Sabor", "opening_hours": null }, "geometry": { "type": "Point", "coordinates": [ -37.2805442, -7.0643899 ] } },
{ "type": "Feature", "properties": { "element_type": "node", "osmid": 4943999432, "amenity": "bar", "name": "Cantinho da Galera", "opening_hours": null }, "geometry": { "type": "Point", "coordinates": [ -37.2774, -7.0583875 ] } },
{ "type": "Feature", "properties": { "element_type": "node", "osmid": 4943999727, "amenity": "fast_food", "name": "Rei do Cachorrão", "opening_hours": null }, "geometry": { "type": "Point", "coordinates": [ -37.2742869, -7.054912 ] } },
{ "type": "Feature", "properties": { "element_type": "node", "osmid": 4944009425, "amenity": "restaurant", "name": "Sabor da Carne", "opening_hours": null }, "geometry": { "type": "Point", "coordinates": [ -37.2740807, -7.0512027 ] } },
{ "type": "Feature", "properties": { "element_type": "node", "osmid": 4954734922, "amenity": "toilets", "name": null, "opening_hours": null }, "geometry": { "type": "Point", "coordinates": [ -37.2828959, -7.029076 ] } },
{ "type": "Feature", "properties": { "element_type": "node", "osmid": 4954734923, "amenity": "toilets", "name": null, "opening_hours": null }, "geometry": { "type": "Point", "coordinates": [ -37.2829246, -7.0291221 ] } },
{ "type": "Feature", "properties": { "element_type": "node", "osmid": 4954734924, "amenity": "toilets", "name": null, "opening_hours": null }, "geometry": { "type": "Point", "coordinates": [ -37.2814423, -7.0280296 ] } },
{ "type": "Feature", "properties": { "element_type": "node", "osmid": 4954734925, "amenity": "toilets", "name": null, "opening_hours": null }, "geometry": { "type": "Point", "coordinates": [ -37.2814088, -7.0280443 ] } },
{ "type": "Feature", "properties": { "element_type": "node", "osmid": 4954734926, "amenity": "toilets", "name": null, "opening_hours": null }, "geometry": { "type": "Point", "coordinates": [ -37.2815984, -7.0279338 ] } },
{ "type": "Feature", "properties": { "element_type": "node", "osmid": 4954734927, "amenity": "toilets", "name": null, "opening_hours": null }, "geometry": { "type": "Point", "coordinates": [ -37.2816368, -7.0279426 ] } },
{ "type": "Feature", "properties": { "element_type": "node", "osmid": 4954734928, "amenity": "toilets", "name": null, "opening_hours": null }, "geometry": { "type": "Point", "coordinates": [ -37.281883, -7.0281722 ] } },
{ "type": "Feature", "properties": { "element_type": "node", "osmid": 4954734929, "amenity": "toilets", "name": null, "opening_hours": null }, "geometry": { "type": "Point", "coordinates": [ -37.2819114, -7.0281603 ] } },
{ "type": "Feature", "properties": { "element_type": "node", "osmid": 4955261962, "amenity": "telephone", "name": null, "opening_hours": null }, "geometry": { "type": "Point", "coordinates": [ -37.2814047, -7.0284026 ] } },
{ "type": "Feature", "properties": { "element_type": "node", "osmid": 4955261975, "amenity": "parking_entrance", "name": "Superior - Guedes", "opening_hours": null }, "geometry": { "type": "Point", "coordinates": [ -37.2813899, -7.0279469 ] } },
{ "type": "Feature", "properties": { "element_type": "node", "osmid": 4955707821, "amenity": "dentist", "name": "Odonto Leal", "opening_hours": null }, "geometry": { "type": "Point", "coordinates": [ -37.2793912, -7.0305019 ] } },
{ "type": "Feature", "properties": { "element_type": "node", "osmid": 4955707921, "amenity": "bar", "name": "Bar do Hominho", "opening_hours": null }, "geometry": { "type": "Point", "coordinates": [ -37.2771648, -7.0423637 ] } },
{ "type": "Feature", "properties": { "element_type": "node", "osmid": 4955707922, "amenity": "pharmacy", "name": "Mega Pharma", "opening_hours": null }, "geometry": { "type": "Point", "coordinates": [ -37.2752068, -7.0473402 ] } },
{ "type": "Feature", "properties": { "element_type": "node", "osmid": 4955707923, "amenity": "bar", "name": "Brisa Bar", "opening_hours": null }, "geometry": { "type": "Point", "coordinates": [ -37.2803868, -7.0641444 ] } },
{ "type": "Feature", "properties": { "element_type": "node", "osmid": 4955707924, "amenity": "bar", "name": "Peixada da Leninha", "opening_hours": null }, "geometry": { "type": "Point", "coordinates": [ -37.2810775, -7.0654317 ] } },
{ "type": "Feature", "properties": { "element_type": "node", "osmid": 4955708121, "amenity": "pharmacy", "name": "Farma Mais", "opening_hours": null }, "geometry": { "type": "Point", "coordinates": [ -37.2752364, -7.0504969 ] } },
{ "type": "Feature", "properties": { "element_type": "node", "osmid": 4955708122, "amenity": "bar", "name": "Brahmeiros Bar", "opening_hours": null }, "geometry": { "type": "Point", "coordinates": [ -37.2783919, -7.0604845 ] } },
{ "type": "Feature", "properties": { "element_type": "node", "osmid": 4955708138, "amenity": "school", "name": "Escola Municipal Alfredo Lustosa Cabral", "opening_hours": null }, "geometry": { "type": "Point", "coordinates": [ -37.2860077, -7.0727379 ] } },
{ "type": "Feature", "properties": { "element_type": "node", "osmid": 4955815871, "amenity": "ice_cream", "name": "Açaí Empório", "opening_hours": null }, "geometry": { "type": "Point", "coordinates": [ -37.276147, -7.028291 ] } },
{ "type": "Feature", "properties": { "element_type": "node", "osmid": 4955815872, "amenity": "ice_cream", "name": "Delicassi", "opening_hours": null }, "geometry": { "type": "Point", "coordinates": [ -37.2760222, -7.0286996 ] } },
{ "type": "Feature", "properties": { "element_type": "node", "osmid": 4957310224, "amenity": "clinic", "name": "UBS Manoel Pereira de Souza", "opening_hours": null }, "geometry": { "type": "Point", "coordinates": [ -37.289512, -7.0133412 ] } },
{ "type": "Feature", "properties": { "element_type": "node", "osmid": 4957310427, "amenity": "dentist", "name": "Odonto Minas", "opening_hours": null }, "geometry": { "type": "Point", "coordinates": [ -37.2778195, -7.0258071 ] } },
{ "type": "Feature", "properties": { "element_type": "node", "osmid": 4960350650, "amenity": "pub", "name": "Bar do Zé Paulo", "opening_hours": null }, "geometry": { "type": "Point", "coordinates": [ -37.2801104, -7.0219148 ] } },
{ "type": "Feature", "properties": { "element_type": "node", "osmid": 4972870671, "amenity": "drinking_water", "name": null, "opening_hours": null }, "geometry": { "type": "Point", "coordinates": [ -37.2583862, -7.0169275 ] } },
{ "type": "Feature", "properties": { "element_type": "node", "osmid": 4972870672, "amenity": "toilets", "name": null, "opening_hours": null }, "geometry": { "type": "Point", "coordinates": [ -37.2583583, -7.0168835 ] } },
{ "type": "Feature", "properties": { "element_type": "node", "osmid": 4972870673, "amenity": "toilets", "name": null, "opening_hours": null }, "geometry": { "type": "Point", "coordinates": [ -37.2583581, -7.0169657 ] } },
{ "type": "Feature", "properties": { "element_type": "node", "osmid": 4972870674, "amenity": "taxi", "name": "Atacadão", "opening_hours": null }, "geometry": { "type": "Point", "coordinates": [ -37.2584565, -7.0171921 ] } },
{ "type": "Feature", "properties": { "element_type": "node", "osmid": 4979372323, "amenity": "bar", "name": "Santa Terezinha", "opening_hours": null }, "geometry": { "type": "Point", "coordinates": [ -37.278969, -7.022791 ] } },
{ "type": "Feature", "properties": { "element_type": "node", "osmid": 4985743323, "amenity": "dentist", "name": "Sorrisos", "opening_hours": null }, "geometry": { "type": "Point", "coordinates": [ -37.2784719, -7.0273387 ] } },
{ "type": "Feature", "properties": { "element_type": "node", "osmid": 4985743326, "amenity": "clinic", "name": "Techlab", "opening_hours": null }, "geometry": { "type": "Point", "coordinates": [ -37.2767749, -7.0289421 ] } },
{ "type": "Feature", "properties": { "element_type": "node", "osmid": 4985747224, "amenity": "fast_food", "name": "Rei dos Salgados", "opening_hours": null }, "geometry": { "type": "Point", "coordinates": [ -37.2767139, -7.0274929 ] } },
{ "type": "Feature", "properties": { "element_type": "node", "osmid": 4985747225, "amenity": "pharmacy", "name": "Santa Maria", "opening_hours": null }, "geometry": { "type": "Point", "coordinates": [ -37.2767358, -7.0274191 ] } },
{ "type": "Feature", "properties": { "element_type": "node", "osmid": 4985747226, "amenity": "fast_food", "name": "Rei dos Salgados", "opening_hours": null }, "geometry": { "type": "Point", "coordinates": [ -37.2772791, -7.0261643 ] } },
{ "type": "Feature", "properties": { "element_type": "node", "osmid": 4985747323, "amenity": "fast_food", "name": "Lu-Lanches", "opening_hours": null }, "geometry": { "type": "Point", "coordinates": [ -37.2805783, -7.0205205 ] } },
{ "type": "Feature", "properties": { "element_type": "node", "osmid": 4985748122, "amenity": "restaurant", "name": "Sakê", "opening_hours": null }, "geometry": { "type": "Point", "coordinates": [ -37.2778466, -7.0292856 ] } },
{ "type": "Feature", "properties": { "element_type": "node", "osmid": 4985923421, "amenity": "fast_food", "name": "Cachorro Quente Paulistano", "opening_hours": null }, "geometry": { "type": "Point", "coordinates": [ -37.2800813, -7.0214697 ] } },
{ "type": "Feature", "properties": { "element_type": "node", "osmid": 4986525323, "amenity": "place_of_worship", "name": "Igreja Evangélica Batista no Salgadinho", "opening_hours": null }, "geometry": { "type": "Point", "coordinates": [ -37.2654738, -7.020659 ] } },
{ "type": "Feature", "properties": { "element_type": "node", "osmid": 4992129850, "amenity": "pub", "name": "World Chop", "opening_hours": null }, "geometry": { "type": "Point", "coordinates": [ -37.2791161, -7.0226233 ] } },
{ "type": "Feature", "properties": { "element_type": "node", "osmid": 4992280125, "amenity": "fast_food", "name": "Doutor Burguer", "opening_hours": null }, "geometry": { "type": "Point", "coordinates": [ -37.281161, -7.0198295 ] } },
{ "type": "Feature", "properties": { "element_type": "node", "osmid": 4992280126, "amenity": "clinic", "name": "Proteger", "opening_hours": null }, "geometry": { "type": "Point", "coordinates": [ -37.2812269, -7.0197495 ] } },
{ "type": "Feature", "properties": { "element_type": "node", "osmid": 4992280127, "amenity": "restaurant", "name": "Bom Sabor", "opening_hours": null }, "geometry": { "type": "Point", "coordinates": [ -37.2816151, -7.0193076 ] } },
{ "type": "Feature", "properties": { "element_type": "node", "osmid": 4992303421, "amenity": "dentist", "name": "ClinVida", "opening_hours": null }, "geometry": { "type": "Point", "coordinates": [ -37.2792646, -7.0224542 ] } },
{ "type": "Feature", "properties": { "element_type": "node", "osmid": 4992303422, "amenity": "ice_cream", "name": "+Puro Açaí", "opening_hours": null }, "geometry": { "type": "Point", "coordinates": [ -37.2802509, -7.0212815 ] } },
{ "type": "Feature", "properties": { "element_type": "node", "osmid": 4992303424, "amenity": "fast_food", "name": "O Rei dos Salgados", "opening_hours": null }, "geometry": { "type": "Point", "coordinates": [ -37.2809893, -7.0204916 ] } },
{ "type": "Feature", "properties": { "element_type": "node", "osmid": 4992303425, "amenity": "restaurant", "name": "China Patos", "opening_hours": null }, "geometry": { "type": "Point", "coordinates": [ -37.2820277, -7.0188673 ] } },
{ "type": "Feature", "properties": { "element_type": "node", "osmid": 4992303427, "amenity": "pharmacy", "name": "Farmass", "opening_hours": null }, "geometry": { "type": "Point", "coordinates": [ -37.2826488, -7.0182045 ] } },
{ "type": "Feature", "properties": { "element_type": "node", "osmid": 4992303428, "amenity": "fast_food", "name": "Mix Lanches", "opening_hours": "Mo-Su 04:00-23:00" }, "geometry": { "type": "Point", "coordinates": [ -37.2827246, -7.0177219 ] } },
{ "type": "Feature", "properties": { "element_type": "node", "osmid": 4992304121, "amenity": "fast_food", "name": "Sorvlanche", "opening_hours": null }, "geometry": { "type": "Point", "coordinates": [ -37.2808216, -7.0206664 ] } },
{ "type": "Feature", "properties": { "element_type": "node", "osmid": 4992304123, "amenity": "fast_food", "name": "O Pastelão", "opening_hours": null }, "geometry": { "type": "Point", "coordinates": [ -37.2849692, -7.0159341 ] } },
{ "type": "Feature", "properties": { "element_type": "node", "osmid": 4992304124, "amenity": "pharmacy", "name": "Lacerda", "opening_hours": null }, "geometry": { "type": "Point", "coordinates": [ -37.2850907, -7.015793 ] } },
{ "type": "Feature", "properties": { "element_type": "node", "osmid": 4992305222, "amenity": "pharmacy", "name": "Farmácia Básica", "opening_hours": null }, "geometry": { "type": "Point", "coordinates": [ -37.2777704, -7.0259604 ] } },
{ "type": "Feature", "properties": { "element_type": "node", "osmid": 4993575321, "amenity": "pharmacy", "name": "Farmácia Jatobá", "opening_hours": null }, "geometry": { "type": "Point", "coordinates": [ -37.2753472, -7.0495147 ] } },
{ "type": "Feature", "properties": { "element_type": "node", "osmid": 4993575324, "amenity": "restaurant", "name": "Casa do Sushi", "opening_hours": null }, "geometry": { "type": "Point", "coordinates": [ -37.2743192, -7.0520382 ] } },
{ "type": "Feature", "properties": { "element_type": "node", "osmid": 4993575325, "amenity": "car_wash", "name": "Lava Jato Esperança", "opening_hours": null }, "geometry": { "type": "Point", "coordinates": [ -37.2732464, -7.049949 ] } },
{ "type": "Feature", "properties": { "element_type": "node", "osmid": 4993575421, "amenity": "fast_food", "name": "Casa do Salgado", "opening_hours": null }, "geometry": { "type": "Point", "coordinates": [ -37.2753911, -7.052717 ] } },
{ "type": "Feature", "properties": { "element_type": "node", "osmid": 4993575422, "amenity": "restaurant", "name": "Restaurante e Lanchonete Madalena", "opening_hours": null }, "geometry": { "type": "Point", "coordinates": [ -37.275513, -7.0545899 ] } },
{ "type": "Feature", "properties": { "element_type": "node", "osmid": 4993575721, "amenity": "car_wash", "name": null, "opening_hours": null }, "geometry": { "type": "Point", "coordinates": [ -37.274448, -7.0532647 ] } },
{ "type": "Feature", "properties": { "element_type": "node", "osmid": 4993575722, "amenity": "restaurant", "name": "@ Tapiocaria", "opening_hours": null }, "geometry": { "type": "Point", "coordinates": [ -37.281712, -7.0221301 ] } },
{ "type": "Feature", "properties": { "element_type": "node", "osmid": 4995111006, "amenity": "hospital", "name": "Unimed Patos", "opening_hours": null }, "geometry": { "type": "Point", "coordinates": [ -37.2735881, -7.0250162 ] } },
{ "type": "Feature", "properties": { "element_type": "node", "osmid": 4995543024, "amenity": "bar", "name": "Bar da Fátima", "opening_hours": null }, "geometry": { "type": "Point", "coordinates": [ -37.2824891, -7.0188212 ] } },
{ "type": "Feature", "properties": { "element_type": "node", "osmid": 4995543027, "amenity": "bar", "name": "Bar do Galego", "opening_hours": null }, "geometry": { "type": "Point", "coordinates": [ -37.2795815, -7.0188864 ] } },
{ "type": "Feature", "properties": { "element_type": "node", "osmid": 4995562923, "amenity": "pharmacy", "name": "Mega Pharma", "opening_hours": null }, "geometry": { "type": "Point", "coordinates": [ -37.2805958, -7.020906 ] } },
{ "type": "Feature", "properties": { "element_type": "node", "osmid": 4995581121, "amenity": "bar", "name": "Bar dos Amigos", "opening_hours": null }, "geometry": { "type": "Point", "coordinates": [ -37.3010249, -7.0052948 ] } },
{ "type": "Feature", "properties": { "element_type": "node", "osmid": 4995581221, "amenity": "bar", "name": "Bar do Peixe", "opening_hours": null }, "geometry": { "type": "Point", "coordinates": [ -37.3010909, -7.0052575 ] } },
{ "type": "Feature", "properties": { "element_type": "node", "osmid": 4997038549, "amenity": "nightclub", "name": "Patos Ténis Clube", "opening_hours": null }, "geometry": { "type": "Point", "coordinates": [ -37.2765971, -7.0242759 ] } },
{ "type": "Feature", "properties": { "element_type": "node", "osmid": 4998792956, "amenity": "water_point", "name": null, "opening_hours": null }, "geometry": { "type": "Point", "coordinates": [ -37.2748057, -7.030986 ] } },
{ "type": "Feature", "properties": { "element_type": "node", "osmid": 4998792957, "amenity": "water_point", "name": null, "opening_hours": null }, "geometry": { "type": "Point", "coordinates": [ -37.2748613, -7.0305697 ] } },
{ "type": "Feature", "properties": { "element_type": "node", "osmid": 4998792958, "amenity": "toilets", "name": null, "opening_hours": null }, "geometry": { "type": "Point", "coordinates": [ -37.2748531, -7.0309935 ] } },
{ "type": "Feature", "properties": { "element_type": "node", "osmid": 4998792959, "amenity": "toilets", "name": null, "opening_hours": null }, "geometry": { "type": "Point", "coordinates": [ -37.2748075, -7.0310308 ] } },
{ "type": "Feature", "properties": { "element_type": "node", "osmid": 5000889822, "amenity": "restaurant", "name": "Esquinão do João Davi", "opening_hours": null }, "geometry": { "type": "Point", "coordinates": [ -37.2766522, -7.0318494 ] } },
{ "type": "Feature", "properties": { "element_type": "node", "osmid": 5000889823, "amenity": "pharmacy", "name": "DrogaCenter", "opening_hours": null }, "geometry": { "type": "Point", "coordinates": [ -37.2773255, -7.0273231 ] } },
{ "type": "Feature", "properties": { "element_type": "node", "osmid": 5000892418, "amenity": "ice_cream", "name": "Zero Grau", "opening_hours": null }, "geometry": { "type": "Point", "coordinates": [ -37.2804046, -7.0211089 ] } },
{ "type": "Feature", "properties": { "element_type": "node", "osmid": 5000900321, "amenity": "fast_food", "name": "Ceiça Lanches e Doceria", "opening_hours": null }, "geometry": { "type": "Point", "coordinates": [ -37.276512, -7.0301481 ] } },
{ "type": "Feature", "properties": { "element_type": "node", "osmid": 5002188221, "amenity": "place_of_worship", "name": "Assembleia de Deus", "opening_hours": null }, "geometry": { "type": "Point", "coordinates": [ -37.2996408, -7.0071093 ] } },
{ "type": "Feature", "properties": { "element_type": "node", "osmid": 5002188422, "amenity": "clinic", "name": "UBS Ministro Ernany Sátiro", "opening_hours": null }, "geometry": { "type": "Point", "coordinates": [ -37.2662946, -7.0128421 ] } },
{ "type": "Feature", "properties": { "element_type": "node", "osmid": 5004007521, "amenity": "bar", "name": "Bar e Restaurante Nova Brasília", "opening_hours": null }, "geometry": { "type": "Point", "coordinates": [ -37.259664, -7.0242452 ] } },
{ "type": "Feature", "properties": { "element_type": "node", "osmid": 5006076224, "amenity": "bar", "name": "Spetto's & Petiscaria", "opening_hours": null }, "geometry": { "type": "Point", "coordinates": [ -37.2768021, -7.0231356 ] } },
{ "type": "Feature", "properties": { "element_type": "node", "osmid": 5008521394, "amenity": "restaurant", "name": "Maria do Bode", "opening_hours": "Mo-Fr 08:00-16:00; Sa 08:00-12:00" }, "geometry": { "type": "Point", "coordinates": [ -37.2786581, -7.0278949 ] } },
{ "type": "Feature", "properties": { "element_type": "node", "osmid": 5008526496, "amenity": "toilets", "name": null, "opening_hours": null }, "geometry": { "type": "Point", "coordinates": [ -37.2778947, -7.0270849 ] } },
{ "type": "Feature", "properties": { "element_type": "node", "osmid": 5009560823, "amenity": "clinic", "name": "Clínica Santa Clara", "opening_hours": null }, "geometry": { "type": "Point", "coordinates": [ -37.2832786, -7.0184131 ] } },
{ "type": "Feature", "properties": { "element_type": "node", "osmid": 5009606521, "amenity": "doctors", "name": "UBS Vila Mariana", "opening_hours": null }, "geometry": { "type": "Point", "coordinates": [ -37.299376, -7.006556 ] } },
{ "type": "Feature", "properties": { "element_type": "node", "osmid": 5009755922, "amenity": "restaurant", "name": "Bom Paladar", "opening_hours": null }, "geometry": { "type": "Point", "coordinates": [ -37.2784536, -7.0281561 ] } },
{ "type": "Feature", "properties": { "element_type": "node", "osmid": 5014949222, "amenity": "car_wash", "name": "Lava Jato do Betinho", "opening_hours": null }, "geometry": { "type": "Point", "coordinates": [ -37.2782538, -7.025893 ] } },
{ "type": "Feature", "properties": { "element_type": "node", "osmid": 5023943734, "amenity": "fast_food", "name": "MC Lanches Familiar", "opening_hours": null }, "geometry": { "type": "Point", "coordinates": [ -37.2855902, -7.015227 ] } },
{ "type": "Feature", "properties": { "element_type": "node", "osmid": 5023949733, "amenity": "bar", "name": "Bar e Lanchonete Santa Francisca", "opening_hours": null }, "geometry": { "type": "Point", "coordinates": [ -37.2868126, -7.0137327 ] } },
{ "type": "Feature", "properties": { "element_type": "node", "osmid": 5027455926, "amenity": "restaurant", "name": "Sabor Nordestino", "opening_hours": null }, "geometry": { "type": "Point", "coordinates": [ -37.2818488, -7.0195277 ] } },
{ "type": "Feature", "properties": { "element_type": "node", "osmid": 5027455927, "amenity": "fast_food", "name": "3 Irmãos", "opening_hours": null }, "geometry": { "type": "Point", "coordinates": [ -37.2826391, -7.0176503 ] } },
{ "type": "Feature", "properties": { "element_type": "node", "osmid": 5027455928, "amenity": "bar", "name": "Skina do Caldinho", "opening_hours": null }, "geometry": { "type": "Point", "coordinates": [ -37.2859211, -7.0143919 ] } },
{ "type": "Feature", "properties": { "element_type": "node", "osmid": 5027460321, "amenity": "fast_food", "name": "Rei do Coco", "opening_hours": null }, "geometry": { "type": "Point", "coordinates": [ -37.2828439, -7.0178211 ] } },
{ "type": "Feature", "properties": { "element_type": "node", "osmid": 5029164921, "amenity": "dentist", "name": "Paulino Odonto", "opening_hours": null }, "geometry": { "type": "Point", "coordinates": [ -37.2783159, -7.0285963 ] } },
{ "type": "Feature", "properties": { "element_type": "node", "osmid": 5029515721, "amenity": "car_wash", "name": "Lava Jato do Beto", "opening_hours": null }, "geometry": { "type": "Point", "coordinates": [ -37.2810888, -7.0360948 ] } },
{ "type": "Feature", "properties": { "element_type": "node", "osmid": 5029516021, "amenity": "car_wash", "name": "Lava Jato Ideal", "opening_hours": null }, "geometry": { "type": "Point", "coordinates": [ -37.2811474, -7.0362352 ] } },
{ "type": "Feature", "properties": { "element_type": "node", "osmid": 5032571261, "amenity": "taxi", "name": "Alternativos Areia de Baraúnas e Salgadinho", "opening_hours": null }, "geometry": { "type": "Point", "coordinates": [ -37.278516, -7.0259645 ] } },
{ "type": "Feature", "properties": { "element_type": "node", "osmid": 5039529222, "amenity": "bar", "name": "Espetinho Universitário", "opening_hours": null }, "geometry": { "type": "Point", "coordinates": [ -37.2647902, -7.02129 ] } },
{ "type": "Feature", "properties": { "element_type": "node", "osmid": 5040838126, "amenity": "bar", "name": "Bar da Tânia", "opening_hours": null }, "geometry": { "type": "Point", "coordinates": [ -37.2750702, -7.0313623 ] } },
{ "type": "Feature", "properties": { "element_type": "node", "osmid": 5040863822, "amenity": "restaurant", "name": "Alain Esfiharia", "opening_hours": null }, "geometry": { "type": "Point", "coordinates": [ -37.2755037, -7.025067 ] } },
{ "type": "Feature", "properties": { "element_type": "node", "osmid": 5042855423, "amenity": "car_wash", "name": "São Paulo", "opening_hours": null }, "geometry": { "type": "Point", "coordinates": [ -37.2771762, -7.0233868 ] } },
{ "type": "Feature", "properties": { "element_type": "node", "osmid": 5042910522, "amenity": "restaurant", "name": "Morada do Sol", "opening_hours": null }, "geometry": { "type": "Point", "coordinates": [ -37.288319, -7.0063718 ] } },
{ "type": "Feature", "properties": { "element_type": "node", "osmid": 5046892058, "amenity": "atm", "name": "Banco24Horas", "opening_hours": null }, "geometry": { "type": "Point", "coordinates": [ -37.2582608, -7.0169862 ] } },
{ "type": "Feature", "properties": { "element_type": "node", "osmid": 5054705722, "amenity": "bar", "name": "Bar do Aluízio", "opening_hours": null }, "geometry": { "type": "Point", "coordinates": [ -37.2787165, -7.0350044 ] } },
{ "type": "Feature", "properties": { "element_type": "node", "osmid": 5054705723, "amenity": "bar", "name": "Bar do Bastião", "opening_hours": null }, "geometry": { "type": "Point", "coordinates": [ -37.2754834, -7.0523126 ] } },
{ "type": "Feature", "properties": { "element_type": "node", "osmid": 5054710921, "amenity": "bar", "name": "Bar São José", "opening_hours": null }, "geometry": { "type": "Point", "coordinates": [ -37.2751054, -7.0464664 ] } },
{ "type": "Feature", "properties": { "element_type": "node", "osmid": 5065083227, "amenity": "fast_food", "name": "Zeca's Lanches", "opening_hours": null }, "geometry": { "type": "Point", "coordinates": [ -37.2760694, -7.028545 ] } },
{ "type": "Feature", "properties": { "element_type": "node", "osmid": 5067285434, "amenity": "bar", "name": "Bar do Torresmo", "opening_hours": null }, "geometry": { "type": "Point", "coordinates": [ -37.2789461, -7.0309402 ] } },
{ "type": "Feature", "properties": { "element_type": "node", "osmid": 5067285435, "amenity": "fast_food", "name": "Pedro Lanches", "opening_hours": null }, "geometry": { "type": "Point", "coordinates": [ -37.275476, -7.0540434 ] } },
{ "type": "Feature", "properties": { "element_type": "node", "osmid": 5067309821, "amenity": "pharmacy", "name": "Farmácia do Povo", "opening_hours": null }, "geometry": { "type": "Point", "coordinates": [ -37.2789733, -7.0304875 ] } },
{ "type": "Feature", "properties": { "element_type": "node", "osmid": 5071560027, "amenity": "fast_food", "name": "Pare Lanches", "opening_hours": null }, "geometry": { "type": "Point", "coordinates": [ -37.2648249, -7.0212161 ] } },
{ "type": "Feature", "properties": { "element_type": "node", "osmid": 5071560028, "amenity": "fast_food", "name": "Tia Dilma", "opening_hours": null }, "geometry": { "type": "Point", "coordinates": [ -37.2648661, -7.0211314 ] } },
{ "type": "Feature", "properties": { "element_type": "node", "osmid": 5078029621, "amenity": "bar", "name": null, "opening_hours": null }, "geometry": { "type": "Point", "coordinates": [ -37.2793304, -7.026815 ] } },
{ "type": "Feature", "properties": { "element_type": "node", "osmid": 5078029622, "amenity": "bar", "name": null, "opening_hours": null }, "geometry": { "type": "Point", "coordinates": [ -37.2791095, -7.0266652 ] } },
{ "type": "Feature", "properties": { "element_type": "node", "osmid": 5084911621, "amenity": "clinic", "name": "Climagem", "opening_hours": null }, "geometry": { "type": "Point", "coordinates": [ -37.2760165, -7.0272053 ] } },
{ "type": "Feature", "properties": { "element_type": "node", "osmid": 5084911721, "amenity": "clinic", "name": "Instituto de Olhos Dr. Valcelon Carvalho", "opening_hours": null }, "geometry": { "type": "Point", "coordinates": [ -37.2760823, -7.0272234 ] } },
{ "type": "Feature", "properties": { "element_type": "node", "osmid": 5105789639, "amenity": "telephone", "name": null, "opening_hours": null }, "geometry": { "type": "Point", "coordinates": [ -37.2704941, -7.023298 ] } },
{ "type": "Feature", "properties": { "element_type": "node", "osmid": 5109496902, "amenity": "bench", "name": null, "opening_hours": null }, "geometry": { "type": "Point", "coordinates": [ -37.2698388, -7.0252007 ] } },
{ "type": "Feature", "properties": { "element_type": "node", "osmid": 5109496907, "amenity": "bench", "name": null, "opening_hours": null }, "geometry": { "type": "Point", "coordinates": [ -37.2695862, -7.0252063 ] } },
{ "type": "Feature", "properties": { "element_type": "node", "osmid": 5109496908, "amenity": "bench", "name": null, "opening_hours": null }, "geometry": { "type": "Point", "coordinates": [ -37.2697323, -7.0252508 ] } },
{ "type": "Feature", "properties": { "element_type": "node", "osmid": 5109496909, "amenity": "bench", "name": null, "opening_hours": null }, "geometry": { "type": "Point", "coordinates": [ -37.2698326, -7.0252814 ] } },
{ "type": "Feature", "properties": { "element_type": "node", "osmid": 5109583778, "amenity": "bench", "name": null, "opening_hours": null }, "geometry": { "type": "Point", "coordinates": [ -37.2696664, -7.024993 ] } },
{ "type": "Feature", "properties": { "element_type": "node", "osmid": 5109583779, "amenity": "bench", "name": null, "opening_hours": null }, "geometry": { "type": "Point", "coordinates": [ -37.2698142, -7.0250587 ] } },
{ "type": "Feature", "properties": { "element_type": "node", "osmid": 5109583780, "amenity": "bench", "name": null, "opening_hours": null }, "geometry": { "type": "Point", "coordinates": [ -37.2698967, -7.0250943 ] } },
{ "type": "Feature", "properties": { "element_type": "node", "osmid": 5109583781, "amenity": "bench", "name": null, "opening_hours": null }, "geometry": { "type": "Point", "coordinates": [ -37.2698077, -7.0251548 ] } },
{ "type": "Feature", "properties": { "element_type": "node", "osmid": 5123043721, "amenity": "restaurant", "name": "Panela Velha", "opening_hours": null }, "geometry": { "type": "Point", "coordinates": [ -37.298919, -7.0331818 ] } },
{ "type": "Feature", "properties": { "element_type": "node", "osmid": 5123043722, "amenity": "fast_food", "name": "Esperaria Lucena", "opening_hours": null }, "geometry": { "type": "Point", "coordinates": [ -37.2904489, -7.0296302 ] } },
{ "type": "Feature", "properties": { "element_type": "node", "osmid": 5123043723, "amenity": "bar", "name": "Bar do Cacau", "opening_hours": null }, "geometry": { "type": "Point", "coordinates": [ -37.2904544, -7.0294777 ] } },
{ "type": "Feature", "properties": { "element_type": "node", "osmid": 5123043724, "amenity": "bar", "name": "Bar do Daguimá", "opening_hours": null }, "geometry": { "type": "Point", "coordinates": [ -37.2905262, -7.0280503 ] } },
{ "type": "Feature", "properties": { "element_type": "node", "osmid": 5123043821, "amenity": "bar", "name": "Bar e Restaurante da Cajarana", "opening_hours": null }, "geometry": { "type": "Point", "coordinates": [ -37.2920405, -7.0317436 ] } },
{ "type": "Feature", "properties": { "element_type": "node", "osmid": 5123043921, "amenity": "bar", "name": "Espetinho do Nego Preto", "opening_hours": null }, "geometry": { "type": "Point", "coordinates": [ -37.2898927, -7.0312666 ] } },
{ "type": "Feature", "properties": { "element_type": "node", "osmid": 5124148828, "amenity": "car_wash", "name": "Pára Jato", "opening_hours": null }, "geometry": { "type": "Point", "coordinates": [ -37.2874399, -7.0184755 ] } },
{ "type": "Feature", "properties": { "element_type": "node", "osmid": 5124148830, "amenity": "clinic", "name": "FisioSer", "opening_hours": null }, "geometry": { "type": "Point", "coordinates": [ -37.2760262, -7.0250447 ] } },
{ "type": "Feature", "properties": { "element_type": "node", "osmid": 5124149422, "amenity": "restaurant", "name": "O Lusitano", "opening_hours": null }, "geometry": { "type": "Point", "coordinates": [ -37.276687, -7.0256728 ] } },
{ "type": "Feature", "properties": { "element_type": "node", "osmid": 5124171323, "amenity": "bar", "name": "Novo Horizonte", "opening_hours": null }, "geometry": { "type": "Point", "coordinates": [ -37.2881148, -7.0179741 ] } },
{ "type": "Feature", "properties": { "element_type": "node", "osmid": 5130974134, "amenity": "toilets", "name": null, "opening_hours": null }, "geometry": { "type": "Point", "coordinates": [ -37.2590993, -7.0194455 ] } },
{ "type": "Feature", "properties": { "element_type": "node", "osmid": 5130974135, "amenity": "toilets", "name": null, "opening_hours": null }, "geometry": { "type": "Point", "coordinates": [ -37.2591708, -7.01944 ] } },
{ "type": "Feature", "properties": { "element_type": "node", "osmid": 5130974136, "amenity": "toilets", "name": null, "opening_hours": null }, "geometry": { "type": "Point", "coordinates": [ -37.2798112, -7.0209949 ] } },
{ "type": "Feature", "properties": { "element_type": "node", "osmid": 5130974137, "amenity": "toilets", "name": null, "opening_hours": null }, "geometry": { "type": "Point", "coordinates": [ -37.2798823, -7.020911 ] } },
{ "type": "Feature", "properties": { "element_type": "node", "osmid": 5135232021, "amenity": "payment_centre", "name": "PagFácil", "opening_hours": null }, "geometry": { "type": "Point", "coordinates": [ -37.2892387, -7.0309812 ] } },
{ "type": "Feature", "properties": { "element_type": "node", "osmid": 5135232221, "amenity": "dentist", "name": "Eydental", "opening_hours": null }, "geometry": { "type": "Point", "coordinates": [ -37.2773149, -7.0275673 ] } },
{ "type": "Feature", "properties": { "element_type": "node", "osmid": 5143143785, "amenity": "nightclub", "name": "Lawf", "opening_hours": null }, "geometry": { "type": "Point", "coordinates": [ -37.2759446, -7.0243791 ] } },
{ "type": "Feature", "properties": { "element_type": "node", "osmid": 5152540535, "amenity": "restaurant", "name": "Restaurante Pão e Vinho", "opening_hours": null }, "geometry": { "type": "Point", "coordinates": [ -37.2593767, -7.0193268 ] } },
{ "type": "Feature", "properties": { "element_type": "node", "osmid": 5154653621, "amenity": "restaurant", "name": "Steak House", "opening_hours": null }, "geometry": { "type": "Point", "coordinates": [ -37.3120526, -7.0348451 ] } },
{ "type": "Feature", "properties": { "element_type": "node", "osmid": 5156175883, "amenity": "telephone", "name": null, "opening_hours": null }, "geometry": { "type": "Point", "coordinates": [ -37.2778505, -7.0241945 ] } },
{ "type": "Feature", "properties": { "element_type": "node", "osmid": 5168223547, "amenity": "bench", "name": null, "opening_hours": null }, "geometry": { "type": "Point", "coordinates": [ -37.2818386, -7.0223338 ] } },
{ "type": "Feature", "properties": { "element_type": "node", "osmid": 5168223548, "amenity": "bench", "name": null, "opening_hours": null }, "geometry": { "type": "Point", "coordinates": [ -37.2818566, -7.0223561 ] } },
{ "type": "Feature", "properties": { "element_type": "node", "osmid": 5168223549, "amenity": "bench", "name": null, "opening_hours": null }, "geometry": { "type": "Point", "coordinates": [ -37.2818673, -7.0222657 ] } },
{ "type": "Feature", "properties": { "element_type": "node", "osmid": 5168223550, "amenity": "bench", "name": null, "opening_hours": null }, "geometry": { "type": "Point", "coordinates": [ -37.2819065, -7.0222754 ] } },
{ "type": "Feature", "properties": { "element_type": "node", "osmid": 5168223551, "amenity": "bench", "name": null, "opening_hours": null }, "geometry": { "type": "Point", "coordinates": [ -37.2819241, -7.0223241 ] } },
{ "type": "Feature", "properties": { "element_type": "node", "osmid": 5168223552, "amenity": "bench", "name": null, "opening_hours": null }, "geometry": { "type": "Point", "coordinates": [ -37.2820507, -7.0224052 ] } },
{ "type": "Feature", "properties": { "element_type": "node", "osmid": 5168223553, "amenity": "bench", "name": null, "opening_hours": null }, "geometry": { "type": "Point", "coordinates": [ -37.2821064, -7.0224484 ] } },
{ "type": "Feature", "properties": { "element_type": "node", "osmid": 5168223554, "amenity": "bench", "name": null, "opening_hours": null }, "geometry": { "type": "Point", "coordinates": [ -37.2821501, -7.0224819 ] } },
{ "type": "Feature", "properties": { "element_type": "node", "osmid": 5168305521, "amenity": "bar", "name": "Espetinho do BH", "opening_hours": null }, "geometry": { "type": "Point", "coordinates": [ -37.2805989, -7.0180681 ] } },
{ "type": "Feature", "properties": { "element_type": "node", "osmid": 5178930522, "amenity": "doctors", "name": "UBS Verônica Vieira", "opening_hours": null }, "geometry": { "type": "Point", "coordinates": [ -37.2870237, -7.0208889 ] } },
{ "type": "Feature", "properties": { "element_type": "node", "osmid": 5223814121, "amenity": "bar", "name": "Espetinho do Chico", "opening_hours": null }, "geometry": { "type": "Point", "coordinates": [ -37.2718743, -7.0152027 ] } },
{ "type": "Feature", "properties": { "element_type": "node", "osmid": 5232857726, "amenity": "fast_food", "name": "Point da saúde", "opening_hours": null }, "geometry": { "type": "Point", "coordinates": [ -37.2825463, -7.0178176 ] } },
{ "type": "Feature", "properties": { "element_type": "node", "osmid": 5232858124, "amenity": "waste_basket", "name": null, "opening_hours": null }, "geometry": { "type": "Point", "coordinates": [ -37.280694, -7.0080751 ] } },
{ "type": "Feature", "properties": { "element_type": "node", "osmid": 5244391321, "amenity": "doctors", "name": "UBS José Maurício Cajuaz", "opening_hours": null }, "geometry": { "type": "Point", "coordinates": [ -37.2807078, -7.0239838 ] } },
{ "type": "Feature", "properties": { "element_type": "node", "osmid": 5246357327, "amenity": "fast_food", "name": "X.P.T.O. Lanches", "opening_hours": null }, "geometry": { "type": "Point", "coordinates": [ -37.2766358, -7.0280568 ] } },
{ "type": "Feature", "properties": { "element_type": "node", "osmid": 5246357328, "amenity": "fast_food", "name": "Corete Lanches", "opening_hours": null }, "geometry": { "type": "Point", "coordinates": [ -37.2768147, -7.0281135 ] } },
{ "type": "Feature", "properties": { "element_type": "node", "osmid": 5254271342, "amenity": "restaurant", "name": "Santo António", "opening_hours": null }, "geometry": { "type": "Point", "coordinates": [ -37.2798917, -7.0288826 ] } },
{ "type": "Feature", "properties": { "element_type": "node", "osmid": 5254277322, "amenity": "restaurant", "name": "Santa Maria", "opening_hours": null }, "geometry": { "type": "Point", "coordinates": [ -37.2801871, -7.0289092 ] } },
{ "type": "Feature", "properties": { "element_type": "node", "osmid": 5258264822, "amenity": "clinic", "name": "Central de Exames", "opening_hours": null }, "geometry": { "type": "Point", "coordinates": [ -37.2762052, -7.0264579 ] } },
{ "type": "Feature", "properties": { "element_type": "node", "osmid": 5258264823, "amenity": "dentist", "name": "Odonto Qualit", "opening_hours": null }, "geometry": { "type": "Point", "coordinates": [ -37.2760622, -7.0264027 ] } },
{ "type": "Feature", "properties": { "element_type": "node", "osmid": 5258266523, "amenity": "restaurant", "name": "Paladar Grill", "opening_hours": null }, "geometry": { "type": "Point", "coordinates": [ -37.2759509, -7.0263478 ] } },
{ "type": "Feature", "properties": { "element_type": "node", "osmid": 5262031121, "amenity": "clinic", "name": "Clínica integrada de Patos", "opening_hours": null }, "geometry": { "type": "Point", "coordinates": [ -37.2749606, -7.0252351 ] } },
{ "type": "Feature", "properties": { "element_type": "node", "osmid": 5272874131, "amenity": "waste_basket", "name": null, "opening_hours": null }, "geometry": { "type": "Point", "coordinates": [ -37.2795821, -7.0134163 ] } },
{ "type": "Feature", "properties": { "element_type": "node", "osmid": 5272874132, "amenity": "waste_basket", "name": null, "opening_hours": null }, "geometry": { "type": "Point", "coordinates": [ -37.2797652, -7.0136836 ] } },
{ "type": "Feature", "properties": { "element_type": "node", "osmid": 5272874133, "amenity": "waste_basket", "name": null, "opening_hours": null }, "geometry": { "type": "Point", "coordinates": [ -37.2796689, -7.0135827 ] } },
{ "type": "Feature", "properties": { "element_type": "node", "osmid": 5272874161, "amenity": "bench", "name": null, "opening_hours": null }, "geometry": { "type": "Point", "coordinates": [ -37.2797594, -7.0136607 ] } },
{ "type": "Feature", "properties": { "element_type": "node", "osmid": 5272874162, "amenity": "bench", "name": null, "opening_hours": null }, "geometry": { "type": "Point", "coordinates": [ -37.2797354, -7.0136705 ] } },
{ "type": "Feature", "properties": { "element_type": "node", "osmid": 5272874180, "amenity": "bench", "name": null, "opening_hours": null }, "geometry": { "type": "Point", "coordinates": [ -37.2796211, -7.0134583 ] } },
{ "type": "Feature", "properties": { "element_type": "node", "osmid": 5272874181, "amenity": "bench", "name": null, "opening_hours": null }, "geometry": { "type": "Point", "coordinates": [ -37.2796405, -7.0134966 ] } },
{ "type": "Feature", "properties": { "element_type": "node", "osmid": 5272874182, "amenity": "bench", "name": null, "opening_hours": null }, "geometry": { "type": "Point", "coordinates": [ -37.2796109, -7.0135162 ] } },
{ "type": "Feature", "properties": { "element_type": "node", "osmid": 5272874183, "amenity": "bench", "name": null, "opening_hours": null }, "geometry": { "type": "Point", "coordinates": [ -37.2796462, -7.0135804 ] } },
{ "type": "Feature", "properties": { "element_type": "node", "osmid": 5272874184, "amenity": "bench", "name": null, "opening_hours": null }, "geometry": { "type": "Point", "coordinates": [ -37.2796962, -7.0136836 ] } },
{ "type": "Feature", "properties": { "element_type": "node", "osmid": 5272874185, "amenity": "bench", "name": null, "opening_hours": null }, "geometry": { "type": "Point", "coordinates": [ -37.2796915, -7.0136543 ] } },
{ "type": "Feature", "properties": { "element_type": "node", "osmid": 5272874186, "amenity": "bench", "name": null, "opening_hours": null }, "geometry": { "type": "Point", "coordinates": [ -37.2796536, -7.0135994 ] } },
{ "type": "Feature", "properties": { "element_type": "node", "osmid": 5275274855, "amenity": "telephone", "name": null, "opening_hours": null }, "geometry": { "type": "Point", "coordinates": [ -37.2907565, -7.0145186 ] } },
{ "type": "Feature", "properties": { "element_type": "node", "osmid": 5288109021, "amenity": "clinic", "name": "Clínica Santa Maria", "opening_hours": null }, "geometry": { "type": "Point", "coordinates": [ -37.2743413, -7.0249321 ] } },
{ "type": "Feature", "properties": { "element_type": "node", "osmid": 5288109022, "amenity": "doctors", "name": "Centro Médico de Patos", "opening_hours": null }, "geometry": { "type": "Point", "coordinates": [ -37.2742044, -7.0248622 ] } },
{ "type": "Feature", "properties": { "element_type": "node", "osmid": 5302537924, "amenity": "bar", "name": "Bar do Gás", "opening_hours": null }, "geometry": { "type": "Point", "coordinates": [ -37.2684951, -7.0176023 ] } },
{ "type": "Feature", "properties": { "element_type": "node", "osmid": 5302537925, "amenity": "ice_cream", "name": "+Puro Açaí", "opening_hours": "Mo-Su 15:00-23:00" }, "geometry": { "type": "Point", "coordinates": [ -37.2774482, -7.023934 ] } },
{ "type": "Feature", "properties": { "element_type": "node", "osmid": 5302537926, "amenity": "telephone", "name": null, "opening_hours": null }, "geometry": { "type": "Point", "coordinates": [ -37.277513, -7.0246684 ] } },
{ "type": "Feature", "properties": { "element_type": "node", "osmid": 5302537929, "amenity": "telephone", "name": null, "opening_hours": null }, "geometry": { "type": "Point", "coordinates": [ -37.2778667, -7.0247953 ] } },
{ "type": "Feature", "properties": { "element_type": "node", "osmid": 5302538021, "amenity": "pharmacy", "name": "Mega Farma", "opening_hours": null }, "geometry": { "type": "Point", "coordinates": [ -37.2724007, -7.0182038 ] } },
{ "type": "Feature", "properties": { "element_type": "node", "osmid": 5333148622, "amenity": "clinic", "name": "Clincenter", "opening_hours": null }, "geometry": { "type": "Point", "coordinates": [ -37.2760601, -7.0269633 ] } },
{ "type": "Feature", "properties": { "element_type": "node", "osmid": 5333170923, "amenity": "clinic", "name": "Ecoclínica de Patos", "opening_hours": null }, "geometry": { "type": "Point", "coordinates": [ -37.2759391, -7.027184 ] } },
{ "type": "Feature", "properties": { "element_type": "node", "osmid": 5333170925, "amenity": "restaurant", "name": "Açaí Tropical", "opening_hours": null }, "geometry": { "type": "Point", "coordinates": [ -37.281445, -7.019979 ] } },
{ "type": "Feature", "properties": { "element_type": "node", "osmid": 5333171823, "amenity": "dentist", "name": "Hiperdental", "opening_hours": "Mo-Fr 07:30-11:30, 13:30-17:30; Sa 08:00-12:00" }, "geometry": { "type": "Point", "coordinates": [ -37.2781932, -7.0267286 ] } },
{ "type": "Feature", "properties": { "element_type": "node", "osmid": 5333171824, "amenity": "clinic", "name": "Laboclin", "opening_hours": null }, "geometry": { "type": "Point", "coordinates": [ -37.2759131, -7.0268766 ] } },
{ "type": "Feature", "properties": { "element_type": "node", "osmid": 5365009401, "amenity": "toilets", "name": null, "opening_hours": null }, "geometry": { "type": "Point", "coordinates": [ -37.2788181, -7.0364642 ] } },
{ "type": "Feature", "properties": { "element_type": "node", "osmid": 5365009418, "amenity": "doctors", "name": "ClinFIP II", "opening_hours": null }, "geometry": { "type": "Point", "coordinates": [ -37.2754164, -7.0263501 ] } },
{ "type": "Feature", "properties": { "element_type": "node", "osmid": 5365009419, "amenity": "social_centre", "name": "Fundação Francisco Mascarenhas", "opening_hours": null }, "geometry": { "type": "Point", "coordinates": [ -37.275867, -7.0250218 ] } },
{ "type": "Feature", "properties": { "element_type": "node", "osmid": 5409652525, "amenity": "bar", "name": "Espetinho da Aninha", "opening_hours": null }, "geometry": { "type": "Point", "coordinates": [ -37.2889661, -7.0165125 ] } },
{ "type": "Feature", "properties": { "element_type": "node", "osmid": 5440893826, "amenity": "restaurant", "name": "Dona Leni", "opening_hours": null }, "geometry": { "type": "Point", "coordinates": [ -37.2743045, -7.0232954 ] } },
{ "type": "Feature", "properties": { "element_type": "node", "osmid": 5440893827, "amenity": "clinic", "name": "Centro de Testagem e Aconselhamento", "opening_hours": null }, "geometry": { "type": "Point", "coordinates": [ -37.2868258, -7.033375 ] } },
{ "type": "Feature", "properties": { "element_type": "node", "osmid": 5451384226, "amenity": "restaurant", "name": "Boi Forte", "opening_hours": null }, "geometry": { "type": "Point", "coordinates": [ -37.279294, -7.0303052 ] } },